ID,Name,ID_REG,Country,Lat,Long,1840,1856,1897,1926,1939,1959,1970,1979,1989,2002,2010
AR45,Moscou,RUS14,Russia,55.75,37.61666667,353882,380500,1072171,2241631,4875457,7186148,9061219,10480741,11625098,13028998,14425208
AR40,Saint-Pétersbourg,RUS57,Russia,59.95,30.31666667,545979,554266,1368812,1731240,3192284,3266874,3983679,4568107,5005419,4661219,4848742
AUA26101,Kiiv,UKR11,Ukraine,50.43,30.52,44683,62497,247723,493873,846724,1115549,1661009,2188695,2663763,2688169,2862217
AUZ12112,Tashkent,OUZ00,Uzbekistan,41.32,69.25,0,0,155673,323544,512086,1037834,1578798,2014625,2437877,2526372,2601360
AAZ01101,Baki,AZE00,Azerbaijan,40.4,49.88,0,0,111904,446832,631900,871871,1144085,1422512,1596550,1757815,1937300
ABE01101,Minsk,BEL00,Belarus,53.9,27.57,22489,25525,90912,123613,237495,515975,916949,1275798,1612472,1716780,1850399
AR22401,Nijni-Novgorod,RUS42,Russia,56.31666667,44,29953,39441,109273,263474,834342,1256441,1594859,1825479,1954795,1795488,1723120
AR50401,Novossibirsk,RUS44,Russia,55.03333333,82.91666667,0,0,0,117900,429000,972987,1299400,1491498,1661119,1627866,1687247
AUA20116,Kharkiv,UKR22,Ukraine,50,36.25,23612,30600,173989,422759,886939,1034281,1318070,1543164,1710411,1564327,1546603
AR65401,Ekatérinbourg,RUS63,Russia,56.83333333,60.58333333,15779,16939,43239,136500,431800,864100,1130900,1327100,1498000,1432928,1496136
AUA05117,Donetsk,UKR06,Ukraine,48,37.8,0,0,0,170265,789737,1234109,1461824,1621354,1722085,1568821,1491507
AKA011,Almaty,KAZ005,Kazakhstan,43.25,76.95,0,0,22744,45400,222000,464322,746301,934389,1165561,1195638,1413182
AR18401,Volgograd,RUS76,Russia,48.7,44.48333333,0,0,55186,148400,445000,688569,1000800,1186911,1323553,1397346,1396940
AUA04106,Dniepropetrovsk,UKR05,Ukraine,48.45,34.98,21796,22619,125722,237047,747761,954915,1222508,1422972,1577990,1430723,1356913
AR75401,Tchéliabinsk,RUS66,Russia,55.15,61.4,0,0,19998,68200,329300,951859,1126889,1264863,1377316,1303838,1330245
AR36401,Samara,RUS59,Russia,53.18333333,50.11666667,10110,24405,89999,171800,407500,901600,1187900,1367300,1408157,1323936,1328211
AR92401,Kazan,RUS65,Russia,55.78333333,49.11666667,45343,56257,129959,174700,447700,775603,1006832,1148838,1268176,1281241,1313825
AGE01101,Tbilisi,GEO00,Georgia,41.73,44.79,29744,38375,159590,284408,522297,772542,1006552,1201966,1427941,1197447,1251500
AR60401,Rostov-sur-le-Don,RUS55,Russia,47.23333333,39.71666667,19673,26546,155503,408079,562300,680200,896100,1054200,1144600,1213717,1243691
AAR01101,Erevan,ARM00,Armenia,40.18,44.51,0,13179,34273,70215,213997,529039,818784,1114336,1342907,1225815,1243000
AR52401,Omsk,RUS45,Russia,54.96666667,73.38333333,11116,16416,37376,111200,288900,581100,832563,1031768,1170398,1156849,1153971
AUA15114,Odesa,UKR17,Ukraine,46.47,30.73,55000,101320,403815,411416,602251,675418,928928,1097449,1180221,1091342,1082099
AR63401,Saratov,RUS60,Russia,51.53333333,46,42371,61610,157147,246000,445217,689968,910441,1044421,1114710,1099126,1074596
AR80401,Oufa,RUS07,Russia,54.73333333,55.96666667,12872,12894,49275,97700,250000,546900,770900,969300,1082100,1042437,1062300
AR04401,Krasnoiarsk,RUS34,Russia,56,92.93333333,0,0,26699,69300,186100,423497,680637,845519,987708,981983,1047312
AR57401,Perm,RUS52,Russia,58,56.25,10286,15586,45205,84800,336000,688231,913325,1063480,1158428,1064657,1043459
ATU02101,Ashgabat,TUR00,Turkmenistan,37.95,58.38,0,0,19426,51600,126600,169935,253118,317449,410467,727286,1034543
AR20401,Voronej,RUS78,Russia,51.66666667,39.18333333,43800,37664,80599,116600,351100,470672,711104,851677,971439,942327,980581
AR32431,Novokouznetsk,RUS25,Russia,53.75,87.11666667,0,0,0,59805,345800,895515,1002538,1027967,1103523,973626,924307
AKI02101,Bishkek,KIR00,Kyrgyzstan,42.87,74.6,0,0,0,36600,76703,239428,452328,569912,650578,835978,872848
ATA02101,Doushanbe,TAD00,Tajikistan,38.56,68.77,0,0,0,0,0,237350,405397,533874,658174,739231,796000
AR03401,Krasnodar,RUS33,Russia,45.03333333,38.98333333,0,0,65606,162475,205986,359119,528799,640387,697023,731969,789741
AUA08107,Zaporizhzha,UKR09,Ukraine,47.82,35.18,0,0,18849,55260,289280,451137,657890,780745,883909,814473,780733
AR36440,toljatti,RUS59,Russia,53.51666667,49.41666667,0,0,0,0,0,121106,309002,554137,685424,763714,775074
AUA13118,Lviv,UKR15,Ukraine,49.84,24.03,0,0,0,0,340000,417872,568403,685817,812356,755054,760391
AR82401,Makhatchkala,RUS13,Russia,42.98333333,47.48333333,0,0,0,31700,105700,148265,234700,312475,386985,584307,758892
AR05401,Vladivostok,RUS53,Russia,43.11666667,131.9,0,0,28933,103300,241300,372968,556824,684366,803535,734928,733964
AKA09104,Karagandy,KAZ001,Kazakhstan,49.8,73.1,0,0,0,0,0,531485,813206,929550,1001198,705378,732973
ALE01150,R_ga,LET00,Latvia,56.95,24.1,71228,70463,282230,326023,347800,581939,733694,851726,934805,768947,730109
AMO01113,Chisinau,MOL00,Moldavia,47.01,28.86,42636,63469,108483,110899,112000,216005,356382,479604,727123,663671,700000
AR01401,Barnaoul,RUS02,Russia,53.36666667,83.75,0,10922,21073,73200,157100,344438,500098,596582,672493,679307,682529
AUA04111,Krivii Rig,UKR05,Ukraine,47.92,33.35,0,0,0,31194,198998,431185,625945,696304,758216,705866,670397
AR73401,Oulianovsk,RUS50,Russia,54.31666667,48.38333333,17739,26568,41684,71731,105942,213422,368462,486213,651289,663574,640205
AR25401,Irkoutsk,RUS17,Russia,52.28333333,104.3,14175,24103,51473,102700,250200,378900,480900,590400,673800,641124,635185
AR94401,Ijevsk,RUS49,Russia,56.85,53.21666667,0,0,21500,63100,175600,285300,422400,548700,635100,632140,628116
AR70401,Toula,RUS72,Russia,54.2,37.61666667,51231,50641,114733,152627,314780,479935,652797,713263,735350,658671,620830
AKA021,Astana / tselinograd,KAZ001,Kazakhstan,51.18,71.43,0,0,0,13000,32000,102276,179514,233638,277365,419771,613006
AKA13108,Shymkent,KAZ004,Kazakhstan,42.3,69.6,0,0,11194,21000,74000,153241,247064,321535,392977,413332,603499
AUZ05104,Namangan,OUZ00,Uzbekistan,41,71.67,0,0,62017,74000,80000,123467,175267,257046,414100,522579,603126
AR78401,Iaroslavl,RUS79,Russia,57.63333333,39.86666667,33197,26915,71616,112200,299400,407100,517300,597000,633000,613088,591486
AR71401,Tioumen,RUS70,Russia,57.15,65.53333333,0,11215,29544,50300,79200,150200,268500,359000,481914,516059,581758
AR97401,Tcheboksary,RUS69,Russia,56.13333333,47.25,0,0,0,0,31000,104400,255000,392900,534400,566478,577758
AR08401,Khabarovsk,RUS26,Russia,48.48333333,135.0666667,0,0,14971,46100,199200,322700,436000,527800,600600,583072,577668
ALI10116,Vilnius,LIT00,Lithuania,54.68,25.32,53538,45881,154532,174576,209400,242853,385150,499280,606831,565300,571706
AR32401,Kemerovo,RUS25,Russia,55.33333333,86.06666667,0,0,0,21700,137000,346779,453996,539359,590907,560938,561526
AR42401,Lipetsk,RUS36,Russia,52.61666667,39.6,0,11300,22224,32148,92500,206987,349752,460490,530442,553592,554922
AUZ01101,Andidjan,OUZ00,Uzbekistan,40.78,72.34,0,0,47627,80194,105000,151328,216478,297989,399405,488114,554539
AR53401,Orenbourg,RUS47,Russia,51.76666667,55.1,12331,13662,72425,122200,171700,267300,344300,458700,546500,549361,546987
AR61401,Riazan,RUS56,Russia,54.61666667,39.71666667,19949,21449,47622,52677,100496,224300,367500,471100,533300,540710,543440
AR69401,Tomsk,RUS71,Russia,56.5,84.96666667,11728,20202,52210,92300,145000,248800,338400,420700,502000,487838,522940
AR12401,Astrakhan,RUS06,Russia,46.35,48.03333333,45703,34582,112880,175400,253600,295800,410500,461000,509200,504501,520662
AR56401,Penza,RUS51,Russia,53.2,45.01666667,19741,23772,59981,91200,159800,255500,373700,482900,542600,518025,517137
AR92430,Naberejnie Tchelny,RUS65,Russia,55.7,52.33333333,0,0,0,0,0,19100,37900,301400,500300,509870,513242
AUA14104,Mikolaiv,UKR16,Ukraine,46.97,32,29564,44280,92012,101182,178484,260551,372321,451741,522343,512827,501183
ABE04104,Gomel,BEL00,Belarus,52.44,30.98,0,10113,36775,82952,139120,168270,272253,382785,500846,478912,487200
AUA05132,Maryoupol' / jdanov,UKR06,Ukraine,47.1,37.55,0,0,31116,40825,221529,291426,425750,512612,529724,500766,480129
AR33401,Kirov,RUS28,Russia,58.6,49.65,10591,15500,25008,61200,145411,278379,370073,436972,499530,480411,473668
AUA12117,Lougansk,UKR14,Ukraine,48.57,39.33,0,0,20404,71006,218780,285667,395405,482558,521510,484077,458156
AR07427,Piatigorsk,RUS62,Russia,44.03333333,43.05,0,0,23140,96700,118300,192670,302811,357065,401154,424975,450491
AR27401,Kaliningrad,RUS20,Russia,54.71666667,20.5,0,0,162000,180279,189129,206000,300600,360700,409200,440916,443924
AUZ08104,Nukus,OUZ00,Uzbekistan,42.45,59.61,0,0,0,0,10000,67415,131968,190131,287708,375781,443835
AR24401,Ivanovo,RUS18,Russia,57,40.98333333,0,0,57508,122800,304200,355500,441900,489600,508000,460482,438685
AR65476,Nijni-Taguil,RUS63,Russia,57.91666667,59.96666667,0,0,30000,38800,194400,397200,444600,473600,515600,469427,433932
AR15401,Briansk,RUS11,Russia,53.25,34.36666667,0,11254,24781,25100,93900,218300,330600,408200,467400,447030,429514
AUA05111,Gorlivka,UKR06,Ukraine,48.3,38.05,0,0,0,83758,374155,531349,556489,552663,562443,482366,428911
AUA05126,Kramatorsk,UKR06,Ukraine,48.72,37.53,0,0,15792,71841,302424,345108,432799,494749,514679,462494,428750
ATU05103,Turkmenabat / Tchardjou,TUR00,Turkmenistan,39.1,63.58,0,0,0,0,51000,66112,96383,140182,167394,298979,427252
AUZ09104,Samarkand,OUZ00,Uzbekistan,39.65,66.96,0,0,55128,105106,137237,206866,281140,521859,416331,416476,418166
AR38401,Koursk,RUS32,Russia,51.71666667,36.18333333,24279,40771,75721,96900,143700,204700,284200,375300,424200,412442,414595
AR75438,Magnitogorsk,RUS66,Russia,53.38333333,59.03333333,0,0,0,0,145900,311100,364200,406100,440300,418545,408401
AUZ03101,Fergana,OUZ00,Uzbekistan,40.39,71.78,0,0,45418,80567,104171,154675,216554,300414,373120,391032,407452
AR81401,Oulan-Oude,RUS10,Russia,51.83333333,107.6166667,0,0,0,29400,125700,175200,253600,304290,367695,375417,404357
AR28401,Tver,RUS74,Russia,56.86666667,35.9,17325,12867,53544,106200,216100,261000,345100,411500,450900,408903,403726
AES01140,Tallinn,EST00,Estonie,59.43333333,24.75,20284,64572,50488,127343,160500,281714,362706,429727,482037,398434,399340
AR07401,Stavropol,RUS62,Russia,45.05,41.98333333,0,17309,41590,57400,85300,141000,198300,258200,318300,354867,398266
AR11401,Arkhanguelsk,RUS05,Russia,64.55,40.53333333,10544,15157,20882,71100,284600,272600,376800,432800,466100,399434,389328
AR47401,Mourmansk,RUS41,Russia,68.96666667,33.08333333,0,0,0,0,120972,271140,370436,455095,560912,418642,382344
AR14401,Belgorod,RUS08,Russia,50.6,36.6,11100,12796,26564,31000,34400,72300,151300,245785,311127,352362,373025
AUA02103,Vinnitsya,UKR03,Ukraine,49.23,28.48,0,0,30563,52454,93032,121854,211572,314446,374304,357302,369214
ALI02108,Kaunas,LIT00,Lithuania,54.9,23.9,0,20003,70920,99157,134342,216837,310703,379732,435269,388513,361992
AUA01113,Simferopol,UKR01,Ukraine,44.96,34.11,0,26481,49078,86145,142634,199037,264410,320758,367270,366449,360337
ABE06110,Mogileu,BEL00,Belarus,53.91,30.34,23103,22815,43119,46562,99428,121712,202314,290361,359188,361635,359596
AUA27103,Sevastopol,UKR02,Ukraine,44.6,33.53,37630,41820,54810,69594,114252,148033,239109,311429,368565,352466,351964
ABE03104,Vitebsk,BEL00,Belarus,55.19,30.19,17861,20728,65871,91201,167299,148300,230804,296605,350004,341719,351231
AKA04101,Aktobe,KAZ003,Kazakhstan,50.3,57.18,0,0,0,21000,49000,96680,149914,190569,253532,251085,345687
AR17401,Vladimir,RUS75,Russia,56.13333333,40.41666667,12035,12666,28479,36900,66800,153900,237937,304850,366343,327572,345598
AR89401,Saransk,RUS39,Russia,54.18333333,45.18333333,10131,11222,14584,15200,58200,115900,231700,312100,363100,354656,344954
AR03426,Sotchi,RUS33,Russia,43.6,39.71666667,0,0,0,12467,54966,131016,224000,287400,336500,328809,343285
AUZ02101,Bukhara,OUZ00,Uzbekistan,39.77,64.43,0,0,0,47000,50000,90357,145717,226525,283588,314760,340033
AR53423,Orsk,RUS47,Russia,51.2,58.56666667,0,0,14016,13300,69300,230700,308700,341300,376800,357278,337936
AR37401,Kourgan,RUS31,Russia,55.45,65.33333333,0,0,10301,28000,53300,145700,243900,309900,355500,345515,333640
ABE05104,Grodna,BEL00,Belarus,53.68,23.81,15526,15012,46919,48482,49200,72943,132471,194775,270535,309452,332870
AR54401,Orel,RUS46,Russia,52.96666667,36.08333333,32600,35281,69735,75600,110600,152962,234974,312432,349250,345409,329849
AR90401,Vladikavkaz,RUS167,Russia,43.01666667,44.68333333,0,0,43740,73600,130800,164400,243759,289087,311460,330182,328410
AR66401,Smolensk,RUS61,Russia,54.78333333,32.05,0,0,46699,73100,157000,160023,230620,299247,341500,325137,326863
AR29401,Kalouga,RUS22,Russia,54.51666667,36.26666667,35274,31027,49513,49400,89400,134200,210900,265000,311400,334751,325185
AR76401,Tchita,RUS80,Russia,52.03333333,113.5,0,0,11511,58000,102600,171800,241400,302600,365800,316643,323964
AR95401,Abakan,RUS34,Russia,53.71666667,91.41666667,0,0,10231,21400,80246,159275,204457,270476,322231,325748,323053
AKA08103,Taraz - djambul,KAZ004,Kazakhstan,42.9,71.37,0,0,11722,25000,64000,113346,187164,263793,306715,328795,320634
AUA21108,Kherson,UKR23,Ukraine,46.63,32.6,19577,33813,59076,57376,96987,157995,271102,330941,368486,339956,317360
AKA14104,Pavlodar,KAZ002,Kazakhstan,52.3,76.95,0,0,0,18000,29000,90096,187070,272895,330748,292044,317289
AAZ05105,Ganca,AZE00,Azerbaijan,40.68,46.36,0,10938,33625,55510,98949,116122,189512,231901,278006,300891,315900
ABE02103,Brest,BEL00,Belarus,52.1,23.7,11296,17376,46568,42935,41400,73614,121629,177249,258016,229712,312779
AR19430,Tchérépovets,RUS77,Russia,59.13333333,37.91666667,0,0,0,21200,32400,92400,188300,265900,310500,311869,312311
AR68401,Tambov,RUS64,Russia,52.71666667,41.43333333,12986,21950,48015,73900,123200,197700,263100,307900,343100,327712,312308
AR71136,Sourgout,RUS70,Russia,61.25,73.43333333,0,0,0,0,0,0,34000,107300,247800,285027,306703
AKA16106,Oskemen (oust-kamenogorsk,KAZ003,Kazakhstan,49.98,82.61,0,0,0,14000,20000,150371,230340,274287,324478,300977,303720
AR19401,Vologda,RUS77,Russia,59.21666667,39.9,16324,14159,27705,57100,95300,139100,177800,236500,282800,293046,301642
AUA16113,Poltava,UKR18,Ukraine,49.58,34.57,15521,20516,53703,89391,128456,143097,219873,278931,314740,316630,300501
AAZ03101,Sumqayit,AZE00,Azerbaijan,40.59,49.67,0,0,0,0,0,51485,127268,195844,239824,274760,299600
AKA16108,Semei/semipalatinsk,KAZ003,Kazakhstan,50.41,80.23,0,0,26246,57000,110000,156110,235735,282574,334402,269228,299264
AUA25115,Tchernigiv,UKR27,Ukraine,51.5,31.3,11100,14351,27716,34359,68597,89585,158873,238141,296347,304405,297402
AUA23114,Tcherkasi,UKR25,Ukraine,49.43,32.07,0,11945,29600,38563,51723,84822,158393,228197,290340,294731,287713
AUA12116,Lisitchansk,UKR14,Ukraine,48.92,38.42,0,0,0,0,117170,183949,278724,309953,343124,307666,287540
AR70234501,novmoskovsk,RUS72,Russia,54.03333333,38.26666667,0,0,0,0,107500,280915,321341,333118,326161,297284,279563
ATU04101,Dashougouz,TUR00,Turkmenistan,41.83,59.97,0,0,0,0,0,0,0,83750,111406,195034,275278
AR80445,sterlitamak,RUS07,Russia,53.63333333,55.95,0,0,15550,25000,38800,111600,184900,220100,247500,264362,273432
AUA18113,Soumi,UKR20,Ukraine,50.92,34.78,13223,12120,27564,43814,63976,98015,166467,228174,291264,290984,272326
AR83401,Naltchik,RUS19,Russia,43.48333333,43.61666667,0,0,0,12900,53400,100700,164700,230800,262700,308749,271774
AUA06104,Zhitomir,UKR07,Ukraine,50.25,28.67,17434,29350,65895,69465,95067,116246,172235,243764,292097,283277,271714
AR96401,groznyj,RUS167,Russia,43.31666667,45.7,0,0,15564,68700,172400,251750,341300,375300,399700,210720,271596
AR98401,Iakoutsk,RUS15,Russia,62.03333333,129.7333333,0,0,0,10600,52900,74300,111349,158528,198710,226429,269486
AR34401,Kostroma,RUS30,Russia,57.76666667,40.93333333,12160,14834,41336,72300,121300,171700,223000,254700,278400,278750,268617
AR88401,Iochkar-Ola,RUS38,Russia,56.63333333,47.86666667,0,0,0,0,27200,89845,169532,211084,255191,273329,265528
AR08409,Komsomolsk-na-Amoure,RUS26,Russia,50.55,137,0,0,0,0,70800,177300,218100,263900,315300,281035,263906
AR86401,Petrozavodsk,RUS12,Russia,61.78333333,34.35,0,10144,12522,26300,69700,135300,184500,234100,269500,266160,263540
AUA22112,Khmelnitskii,UKR24,Ukraine,49.42,27,0,0,22855,27298,37481,62473,112959,171801,236938,253973,261397
AR60437,taganrog,RUS55,Russia,47.23333333,38.9,12565,18515,51437,85900,188800,202100,254200,276400,291600,281947,257692
AR71135,Nijni-Vartovsk,RUS70,Russia,60.95,76.55,0,0,0,0,0,0,15700,108700,241500,239044,251860
AUA24112,Tchernivtsi,UKR26,Ukraine,48.3,25.93,0,33000,68000,112000,106300,154390,186812,218561,256644,240893,251776
AR60440,shahty,RUS55,Russia,47.7,40.23333333,0,0,16479,31700,143998,230681,240678,246684,266622,263585,251406
AUA17110,Rivne,UKR19,Ukraine,50.62,26.25,0,0,24573,36162,43000,59598,115541,178956,227925,248642,249582
AUZ07104,Karshi,OUZ00,Uzbekistan,38.86,65.8,0,0,0,0,0,19709,71111,108225,168719,214735,249107
AR25414,Bratsk,RUS17,Russia,56.11666667,101.6,0,0,0,0,0,51500,185261,244048,284617,259335,246348
AR03420,novrossijsk,RUS33,Russia,44.71666667,37.76666667,0,12044,16897,66200,95200,93500,132700,159100,185900,232079,241788
AKA10103,Kostanai,KAZ001,Kazakhstan,53.17,63.58,0,0,14275,25000,34000,91060,136372,181236,244872,230436,237869
AUA11105,Kirovograd,UKR13,Ukraine,48.5,32.26,0,0,61488,64502,100054,134330,188795,236652,269803,252936,236097
AR87401,Syktyvkar,RUS29,Russia,61.66666667,50.81666667,0,0,0,0,25300,64500,125100,171000,232100,230011,235006
AKI05101,Osh,KIR00,Kyrgyzstan,40.53,72.79,0,0,34157,31000,33000,65197,120374,169000,211045,201183,234552
AR32419,leninskkuzn,RUS25,Russia,54.65,86.16666667,0,0,0,19600,126000,270000,277983,282768,319700,253259,234389
AR92435,nizhnekamsk,RUS65,Russia,55.63333333,51.81666667,0,0,0,0,0,0,49000,134200,190800,225399,234108
AR25405,angarsk,RUS17,Russia,52.56666667,103.9166667,0,0,0,0,0,140075,209006,244079,270649,251176,233765
AMO02108,Tiraspol,MOL00,Moldavia,46.84,29.64,13608,22694,63413,49466,68343,105785,177553,231829,311831,249614,229527
AKA07102,Oral,KAZ002,Kazakhstan,51.23,51.37,12126,17640,36466,36000,67000,103914,134162,177716,211925,211465,229226
AR49401,Veliki Novgorod,RUS43,Russia,58.51666667,31.28333333,14936,12758,25736,31100,40000,62909,132279,196300,243015,233320,228336
AUA16108,Krementchouk,UKR18,Ukraine,49.07,33.42,17087,20030,63007,57331,89723,92810,166083,209616,236495,233239,227611
AUA09106,Ivano-Frankivsk,UKR10,Ukraine,48.92,24.71,0,0,0,0,65000,66456,104971,149747,214021,218435,224401
AR80439,salavat,RUS07,Russia,53.36666667,55.93333333,0,0,0,0,21800,107300,168100,194200,219500,228795,222327
AR14440,staryjoskol,RUS08,Russia,51.3,37.83333333,0,0,15617,20000,10900,27500,51500,114900,173900,215898,221163
AUA19115,Ternopil,UKR21,Ukraine,49.55,25.61,0,0,0,0,50000,52245,84663,143625,204845,227035,217577
ABE06102,Babrouisk,BEL00,Belarus,53.15,29.23,20710,17103,34336,39280,84078,97530,137536,192207,221166,220760,215378
AR46204501,balashiha,RUS40,Russia,55.8,37.95,0,0,0,10748,36749,94744,118467,137817,151591,171157,215353
AR10401,Blagoveschensk,RUS04,Russia,50.28333333,127.5333333,0,0,32834,57200,58800,94700,127800,172000,205600,219221,214397
AUZ03103,Kokand,OUZ00,Uzbekistan,40.53,70.94,0,0,81354,69000,85000,105082,133131,152776,182073,199354,210794
AUA03107,Loutsk,UKR04,Ukraine,50.75,25.33,0,0,15804,29278,38600,57305,96493,141070,197724,207511,210775
AR01405,bijsk,RUS02,Russia,52.51666667,85.16666667,0,0,17213,45500,80200,150909,190487,216527,239183,231172,210055
AGE04108,Koustaisi,GEO00,Georgia,42.26,42.72,0,0,32476,45754,80924,139778,177509,211955,256150,202806,209600
AUA10102,Bila Tserkva,UKR12,Ukraine,49.78,30.12,0,0,0,42111,47369,70633,108545,151318,196878,200693,209250
ATU06102,Mary,TUR00,Turkmenistan,37.6,61.83,0,0,0,0,0,0,0,74481,92290,152933,208682
AKA11104,Kyzylorda,KAZ004,Kazakhstan,44.85,65.51,0,0,0,23574,47000,69141,131186,168505,167160,175011,207557
AR36435,syzranj,RUS59,Russia,53.16666667,48.46666667,12977,17837,32383,48800,77900,182200,207300,208300,210377,213443,206017
ATA05101,Khoutchand / leninabad,TAD00,Tajikistan,40.28,69.63,0,0,30109,37000,46000,109532,144305,178126,213105,207827,205000
AR58401,Pskov,RUS54,Russia,57.81666667,28.33333333,10099,16329,30478,40400,60000,81300,126700,175700,203800,202780,203281
AKA15103,Petropavlovsk,KAZ001,Kazakhstan,54.88,69.16,0,0,19688,47000,92000,131453,172911,206559,241360,196725,201446
AR78415,Rybinsk,RUS79,Russia,58.05,38.83333333,0,0,25290,53900,139200,181700,218300,238600,251400,222653,200771
AR63407,Balakovo,RUS60,Russia,52,47.8,0,0,16000,19100,23000,36400,103500,151600,197400,200470,199573
AR75442,miass,RUS66,Russia,55,60.1,0,0,16100,19400,32200,129900,168800,196000,217900,205564,195217
AR11430,severodvinsk,RUS05,Russia,64.56666667,39.81666667,0,0,0,0,21300,78700,144700,197200,248700,201551,192265
AUZ06101,Navoi,OUZ00,Uzbekistan,40.08,65.38,0,0,0,0,0,0,0,84277,123915,160972,189092
AR03405,Armavir,RUS33,Russia,45,41.11666667,0,0,18113,74400,83700,111000,145400,161500,161000,193964,188897
AR65456,krasnotursk,RUS63,Russia,59.76666667,60.2,0,0,14500,53214,97839,210000,197300,199200,208500,195898,188200
AR65480,pervouralsk,RUS63,Russia,56.91666667,59.95,0,0,0,19000,76000,145300,175700,192100,208000,194944,186445
AR60412,volgodonsk,RUS55,Russia,47.51666667,42.15,0,0,0,0,0,25600,41100,106700,190900,181438,185650
ALI03102,Klaip_da,LIT00,Lithuania,55.72,21.12,0,0,0,0,0,89923,140012,175834,204248,191899,182752
ABE03116,Polatsk,BEL00,Belarus,55.49,28.8,10283,11967,20294,21455,29577,46189,104296,138262,169536,185678,181803
AKA12101,Aktau,KAZ006,Kazakhstan,43.65,51.2,0,0,0,0,0,0,63366,118186,169948,163128,181780
AR64401,Ioujno-Sakhalinsk,RUS58,Russia,46.95,142.7333333,0,0,0,0,0,89891,111911,147909,159300,175085,181727
AUA05148,Torez,UKR06,Ukraine,48.04,38.59,0,0,0,0,92835,242183,236847,239529,249772,205720,180031
AR30401,Petropavlovsk-Kamtchatski,RUS23,Russia,53.01666667,158.65,0,0,0,17000,35400,85600,163403,225797,280687,198028,179526
AKA06101,Atyrau/guriev,KAZ006,Kazakhstan,47.12,51.88,0,0,0,12000,41000,94941,136674,153533,166146,159901,178341
AR04429,Norilsk,RUS34,Russia,69.33333333,88.21666667,0,0,0,0,14000,114567,149534,231823,265430,220602,175301
AR75412,zlatoust,RUS66,Russia,55.16666667,59.66666667,0,11605,20502,47700,99400,161300,180500,197800,207800,194551,174985
AR65436,kamenskural,RUS63,Russia,56.4,61.93333333,0,0,0,0,50900,141000,169300,187400,207800,186153,174710
AUA12135,Stakhanov/Brianka,UKR14,Ukraine,48.56,38.65,0,0,0,43927,174597,226845,253314,239626,244209,195887,173417
AUA04113,Nikopol',UKR05,Ukraine,47.57,34.4,0,0,0,14209,78410,117414,171309,195982,211999,184860,172617
AR60427,novcherkask,RUS55,Russia,47.43333333,40.08333333,17846,17910,51963,56400,75900,123139,172668,196717,201173,184470,169039
ABE02101,Baranabitchi,BEL00,Belarus,53.13,26.03,0,0,0,0,27400,58064,101472,130647,159315,168119,168666
AUA13111,Drogobitch,UKR15,Ukraine,49.35,23.5,0,0,0,0,89000,83404,123753,150065,173136,168674,164097
AR46438,kolomna,RUS40,Russia,55.08333333,38.78333333,12830,13830,20277,30600,96480,117785,135900,147300,161900,167635,162854
AR57408,Berezniki,RUS52,Russia,59.41666667,56.78333333,0,0,0,28600,60546,117900,155700,193300,207700,179221,162206
AR05414,Nakhodka,RUS53,Russia,42.81666667,132.8666667,0,0,0,0,0,69480,111575,150697,185233,177133,159695
AR05423,ussurijsk,RUS53,Russia,43.8,131.95,0,0,10900,32100,71900,104300,128200,146800,158000,157759,157946
AUA08109,Melitopol,UKR09,Ukraine,46.84,35.37,0,0,15489,25249,75748,94670,136860,160664,173385,160370,157626
AR79401,majkop,RUS33,Russia,44.6,40.08333333,0,0,34327,52500,55900,86806,117277,135824,158138,167433,154978
AUZ12109,Almalyk,OUZ00,Uzbekistan,40.84,69.6,0,0,0,0,0,40480,103684,126701,145466,149569,152535
AR82410,derbent,RUS13,Russia,42.06666667,48.3,0,13870,14649,23100,38400,54100,67600,82200,100100,127377,150632
AUZ04101,Djizzak,OUZ00,Uzbekistan,40.12,67.84,0,0,0,0,0,0,0,69501,106087,131665,150382
AR18415,kamyshin,RUS76,Russia,50.08333333,45.4,0,10438,34064,37600,39417,76200,120900,139500,152800,158737,148269
ABE04110,Mazyr,BEL00,Belarus,52.05,29.27,0,0,0,15638,27246,41368,72721,106868,141234,148955,147812
AUA01109,Kertch,UKR01,Ukraine,45.36,36.47,0,12660,34785,34624,104443,98769,127608,156827,174365,156148,147269
AR01416,rubcovsk,RUS02,Russia,51.51666667,81.2,0,0,0,0,38000,111400,145000,157100,171800,163063,147008
ABE07101,Barysau,BEL00,Belarus,54.23,28.49,0,0,15063,23954,49108,59280,84112,111672,143792,150520,146910
AKA09103,Zhezkazgan,KAZ001,Kazakhstan,47.78,67.77,0,0,0,0,0,43918,95357,138268,167538,150388,146332
AR92405,Almetevsk,RUS65,Russia,54.9,52.3,0,0,0,0,0,50900,87100,109600,129000,140437,146309
AAR08102,Gyoumri,ARM00,Armenia,40.79,43.85,0,11600,30616,38433,67729,108446,164966,206613,122587,150410,146300
AR17425,kovrov,RUS75,Russia,56.35,41.31666667,0,0,14571,25900,67100,98600,123300,142900,159900,155499,145492
AR32425,mezhdurechk,RUS25,Russia,53.68333333,88.05,0,0,0,0,0,86700,117900,131800,153000,146422,145024
AUZ11102,Termez,OUZ00,Uzbekistan,37.22,67.28,0,0,0,0,0,0,0,56779,82951,116820,144219
AUZ07105,Shatchrisabz,OUZ00,Uzbekistan,39.06,66.83,0,0,0,0,0,0,0,55723,81558,115698,143632
AKA13106,Tourkistan,KAZ004,Kazakhstan,43.33,68.25,0,0,11253,19920,25732,38152,53965,66741,78285,86356,142899
AUA12102,Altchevsk / kommunarsk,UKR14,Ukraine,48.47,38.8,0,0,0,19419,75602,129946,156026,152760,157491,148033,140287
AUZ13101,Ourgentch,OUZ00,Uzbekistan,41.55,60.63,0,0,0,0,22000,44000,76000,100010,126380,134749,140172
AUA04116,Pavlograd,UKR05,Ukraine,48.52,35.87,0,0,15775,17957,39710,45827,95276,129562,164942,147107,140034
AKA05109,Taldykorgai,KAZ005,Kazakhstan,45.02,78.37,0,0,0,0,0,48104,81622,108396,138237,114065,139075
AUZ12102,Bekabad,OUZ00,Uzbekistan,40.22,69.27,0,0,0,0,0,0,0,67656,94382,117871,135166
AKA03106,Kokshetau,KAZ001,Kazakhstan,53.28,69.39,0,0,0,0,0,52909,80564,103162,136757,123540,135106
AR82435,hasavjurt,RUS13,Russia,43.25,46.58333333,0,0,0,14788,23400,34200,54300,65100,70500,121817,133929
ATU03101,Balkanabat,TUR00,Turkmenistan,39.51,54.37,0,0,0,0,0,0,0,71284,86314,113059,133489
AR17435,murom,RUS75,Russia,55.56666667,42.03333333,0,10819,13271,22600,40100,88791,124007,145980,161688,144711,132491
AR46215501,sergiposad,RUS40,Russia,56.3,38.13333333,0,0,25000,21400,44600,89900,110600,129200,138000,134538,132490
ABE02119,Pinsk,BEL00,Belarus,52.12,26.07,0,10368,28368,21899,19500,41548,61752,89847,118636,130260,131357
ATU06101,Bayramaly,TUR00,Turkmenistan,37.62,62.17,0,0,0,0,0,0,0,37531,43824,86389,131173
ABE03114,Orsha,BEL00,Belarus,54.52,30.41,0,0,13061,22193,55697,71087,110984,122263,136684,137118,128827
AR07415,kislovodsk,RUS62,Russia,43.91666667,42.71666667,0,0,0,31400,51300,78000,89600,100900,114400,129788,128502
AR87425,Oukhta,RUS29,Russia,63.56666667,53.7,0,0,0,0,0,52000,87600,114500,140900,132927,127451
AUZ12101,Angren,OUZ00,Uzbekistan,41.02,70.14,0,0,0,0,0,55789,76096,105970,131970,128844,126958
AR46470,serpuhov,RUS40,Russia,54.91666667,37.4,13481,15440,30571,56500,91000,106400,124300,139700,143600,131097,126496
AUZ09102,Kattakourgan,OUZ00,Uzbekistan,39.9,66.26,0,0,0,0,0,0,0,53353,78350,105171,126173
ALI06110,siauliai,LIT00,Lithuania,55.93,23.32,0,0,16128,23298,33757,59722,93057,118216,145056,132907,125453
AKA14102,Ekibastouz,KAZ002,Kazakhstan,51.99,74.91,0,0,0,0,0,25705,43726,65871,134627,122514,125012
AR93401,Kyzyl,RUS73,Russia,51.71666667,94.45,0,0,0,0,10000,34500,51700,70047,91897,114568,124925
AGE02101,Batoumi,GEO00,Georgia,41.64,41.63,0,0,28508,45450,70019,82328,100603,122815,136609,121806,123500
AR71134,Nefte-Ougansk,RUS70,Russia,61.1,72.6,0,0,0,0,0,0,19700,52400,93900,107830,123276
AMO01102,Balti,MOL00,Moldavia,47.76,27.93,0,0,18478,26118,30500,67114,101447,125330,158517,126935,122900
AR73405,dimitrvgrad,RUS50,Russia,54.21666667,49.6,0,0,0,18000,32500,50700,81400,106000,123600,130871,122549
AR80427,Neftekamsk,RUS07,Russia,56.08333333,54.25,0,0,0,0,0,0,51461,73813,111356,127124,121757
AR91401,cherkessk,RUS62,Russia,44.21666667,42.05,0,0,11473,19000,28600,41700,67200,90800,113100,116244,121439
AR46457,orehovozuev,RUS40,Russia,55.8,38.96666667,0,0,0,62800,99000,108300,120100,132300,137200,122248,120620
AR07424,nevinnomysk,RUS62,Russia,44.63333333,41.93333333,0,0,0,0,23600,39800,85100,103700,121400,132141,118351
AUA08101,Berdyansk,UKR09,Ukraine,46.75,36.79,0,0,26496,26409,51681,65249,100133,122109,132644,121183,117517
AR29415,obninsk,RUS22,Russia,55.1,36.61666667,0,0,0,0,0,18500,55079,82229,110592,118012,116948
AUA07109,Ouzhgorod,UKR08,Ukraine,48.62,22.3,0,0,0,0,30000,47396,64578,90995,117061,117268,116456
AUA05128,Krasnoarmiisk,UKR06,Ukraine,48.28,37.18,0,0,0,16844,56519,99337,107090,118657,136113,123179,116409
ALI05106,Panev_zys,LIT00,Lithuania,55.73,24.35,0,0,12968,20454,26925,41096,73328,101519,126419,118864,111959
AR60430,novoshahtsk,RUS55,Russia,47.76666667,39.91666667,0,0,0,0,48000,118009,117242,119120,121842,116017,111087
AR71178,Noiabrsk,RUS70,Russia,63.2,75.45,0,0,0,0,0,0,0,0,85900,96440,110572
AR24405,kineshma,RUS18,Russia,57.45,42.15,0,0,0,22300,87100,116500,125800,131200,133900,119936,110365
AKA10105,Roudnyi,KAZ001,Kazakhstan,52.96,63.12,0,0,0,0,0,36639,96041,109707,124300,106475,109659
AR80435,oktjabrskij,RUS07,Russia,54.48333333,53.48333333,0,0,0,0,0,64700,77100,88000,104700,108647,109379
AR04403,achinsk,RUS34,Russia,56.26666667,90.5,0,0,0,19934,32500,50300,97000,116900,121600,118744,109156
AR46253501,stupino,RUS40,Russia,54.9,38.06666667,0,0,0,0,32108,71887,98800,113800,118600,104022,108822
AR69541,seversk,RUS71,Russia,56.6,84.85,0,0,0,0,0,0,0,0,103000,109106,108466
AR42415,elec,RUS36,Russia,52.61666667,38.51666667,25880,23188,46956,42500,50900,77900,100700,111700,120300,116726,108404
AKA12102,Zhanaezen,KAZ006,Kazakhstan,43.3,52.8,0,0,0,0,0,0,18073,37996,52911,67146,108020
AUA01107,Evpatoria,UKR01,Ukraine,45.2,33.36,12841,14099,17913,23341,47030,56992,79444,93281,107792,105849,106846
AR22403,arzamas,RUS42,Russia,55.4,43.81666667,0,10349,10592,18500,25800,41500,67500,93300,109000,109432,106367
AAR06107,Vanadzor,ARM00,Armenia,40.81,44.49,0,0,0,0,17607,49423,106624,146036,75616,106968,104800
AR71176,Novy Ourengoï,RUS70,Russia,66.08333333,76.68333333,0,0,0,0,0,0,0,0,93200,94456,104144
ALE01117,Daugavpils,LET00,Latvia,55.88,26.53,0,11106,69675,56702,51700,65459,100431,115731,126680,113409,103922
AR85401,Elista,RUS21,Russia,46.31666667,44.26666667,0,0,0,0,17100,23200,49900,70300,89700,104254,103728
AES01143,Tartu,EST00,Estonie,58.38333333,26.71666667,12914,42308,29974,53040,57000,74263,90459,104518,113977,101140,103284
AUZ11101,Denau,OUZ00,Uzbekistan,38.27,67.9,0,0,0,0,0,0,0,35695,46881,76375,103130
ATU03103,Turkmenbashi,TUR00,Turkmenistan,40.02,52.97,0,0,0,0,0,0,0,53131,58854,83176,102906
AUA22106,Kamyanets-Podilsk,UKR24,Ukraine,48.67,26.57,15352,18262,35934,31098,34849,40299,57111,84440,102236,99769,102813
ABE07117,Saligorsk,BEL00,Belarus,52.8,27.53,0,0,0,0,0,0,38255,65148,92742,101200,102692
AUA12113,Krasnii Loutch,UKR14,Ukraine,48.13,38.93,0,0,0,0,76240,132232,134754,133179,139268,114442,102276
AR94440,sarapul,RUS49,Russia,56.46666667,53.8,0,0,21398,25000,42200,68700,97000,106600,110400,103141,101390
AR94410,votkinsk,RUS49,Russia,57.05,54,0,0,21000,19500,38600,59700,74100,89800,103500,99441,100034
AR71410,tobolsk,RUS70,Russia,58.2,68.25,16362,16120,20425,18200,32200,39000,49300,69181,103648,101639,99698
AR58410,velikie luki,RUS54,Russia,56.33333333,30.51666667,0,0,0,19600,34900,58900,85300,101500,113700,104979,98778
AR68415,michurinsk,RUS64,Russia,52.9,40.48333333,20403,20554,40297,53300,71500,89919,109235,116013,124415,96093,98758
ATU03102,Serdar (Gyzylarbat - Kizyl-Arvat),TUR00,Turkmenistan,38.98,56.28,0,0,0,0,0,0,0,27039,33388,65139,98278
AUA01118,Yalta,UKR01,Ukraine,44.5,34.17,0,0,13155,31688,37226,63463,86778,103219,113162,101320,98071
ABE05107,Lida,BEL00,Belarus,53.88,25.3,0,0,0,22501,33400,28541,47578,65500,91007,99192,97918
AAZ04110,Mingatchevir,AZE00,Azerbaijan,40.77,47.05,0,0,0,0,0,19904,43092,59733,85388,92872,97800
AR57430,solikamsk,RUS52,Russia,59.63333333,56.76666667,0,0,0,0,38000,82900,88600,101200,110100,102531,97239
AR44401,Magadan,RUS37,Russia,59.56666667,150.8,0,0,0,0,27000,62200,92100,121300,151700,99399,95925
AR94420,glazov,RUS49,Russia,58.13333333,52.65,0,0,0,0,16500,59000,68300,81100,104100,100894,95835
AR60419,kamenskshah,RUS55,Russia,48.31666667,40.26666667,0,0,12190,17861,54138,76804,87757,92377,95999,98232,95306
AR38405,zhelezgorsk,RUS32,Russia,52.33333333,35.36666667,0,0,0,0,0,0,31000,65300,85200,95528,95057
ATA01101,Koulob,TAD00,Tajikistan,37.91,69.78,0,0,0,0,0,0,0,54841,74456,86578,95000
AUA10106,Brovari,UKR12,Ukraine,50.5,30.77,0,0,0,0,0,17824,39104,58554,82042,87105,94968
AR65409,asbest,RUS63,Russia,57,61.46666667,0,0,0,0,30000,60100,91281,102933,114302,104417,94960
AR04420,kansk,RUS34,Russia,56.2,95.7,0,0,0,19000,42200,82700,94700,100600,109600,103000,94230
ABE07113,Maladzetchna,BEL00,Belarus,54.32,26.85,0,0,0,0,0,28384,50413,72612,91726,97676,94083
AR26406,nazranj,RUS167,Russia,43.21666667,44.76666667,0,0,0,0,0,0,12900,14900,18200,125066,93357
AR41420,gatchina,RUS35,Russia,59.56666667,30.13333333,0,0,14824,16600,38000,36700,63300,75200,79700,88420,92566
AR22503,sarov,RUS42,Russia,54.93333333,43.31666667,0,0,0,0,0,0,15244,24931,43067,87652,92073
AR87410,Vorkouta,RUS29,Russia,67.5,64.03333333,0,0,0,0,0,70875,116801,135860,160897,116045,91631
AR46206501,voskresensk,RUS40,Russia,55.31666667,38.68333333,0,0,0,0,29000,44800,74059,86751,94631,92208,91301
AR17410,aleksandrov,RUS75,Russia,56.4,38.71666667,0,0,20710,31500,58900,73800,89000,98800,104400,96895,90784
AKI09207,Zhalalabat,KIR00,Kyrgyzstan,40.93,73,0,0,0,0,0,0,0,55369,70855,81676,90258
AUA18106,Konotop,UKR20,Ukraine,51.23,33.2,0,0,18770,33192,45872,54097,68400,82278,95549,92280,89816
AR92410,bugulma,RUS65,Russia,54.53333333,52.78333333,0,0,0,14200,24900,61000,72400,80500,89600,93014,89144
AR56405,kuzneck,RUS51,Russia,53.11666667,46.6,10626,11774,20473,29600,37800,56900,84100,93600,98600,92050,88883
AR14430,gubkin,RUS08,Russia,51.28333333,37.55,0,0,0,0,0,21300,54100,65100,73800,86083,88562
AR47405,Apatity,RUS41,Russia,67.56666667,33.4,0,0,0,0,0,53000,84100,102500,131500,95998,88329
AUA23112,Ouman,UKR25,Ukraine,48.75,30.22,0,11175,31016,43821,44384,44546,63378,78897,90596,88500,87836
AR03411,ejsk,RUS33,Russia,46.7,38.28333333,0,17539,35414,37700,46900,55300,64400,70600,78200,86349,87771
AR25438,Oust-Ilimsk,RUS17,Russia,58,102.6666667,0,0,0,0,0,0,21300,68600,109300,100592,86591
AR04535,zhelezngrsk,RUS34,Russia,56.25,93.53333333,0,0,0,0,0,0,0,86200,89608,93875,85559
AR65540,novouraljsk,RUS63,Russia,57.25,60.08333333,0,0,0,0,0,0,0,0,0,95414,85519
ATU01102,Tedzhen,TUR00,Turkmenistan,37.38,60.5,0,0,0,0,0,0,0,31822,40149,63770,84777
ALE01134,Liep_ja,LET00,Latvia,56.52,21.02,10992,18062,64489,56465,53200,71464,92884,107663,114462,87505,84074
AUA07104,Moukatcheve,UKR08,Ukraine,48.45,22.72,0,0,0,0,0,46423,57414,71864,84521,82292,83763
AUA11110,Oleksandriya,UKR13,Ukraine,48.67,33.12,0,0,14007,18255,19548,50683,69416,82059,102611,92642,83419
AR25436,usoljesibir,RUS17,Russia,52.75,103.65,0,0,0,0,20000,48500,86700,103000,106500,90161,83364
AR57435,chajkovskij,RUS52,Russia,56.76666667,54.11666667,0,0,0,0,0,12800,48000,70300,85800,86714,82933
AR60404,azov,RUS55,Russia,47.1,39.41666667,0,0,27500,17500,25000,39900,59300,75100,80300,82090,82882
AUA10111,Irpin,UKR12,Ukraine,50.52,30.25,0,0,0,0,0,25070,51549,64188,75884,81314,82750
AR53412,buzuluk,RUS47,Russia,52.76666667,52.26666667,0,0,14362,24600,42400,54900,67100,76000,84000,87286,82655
AR75543,ozjorskch,RUS66,Russia,55.75,60.71666667,0,0,0,0,0,0,0,0,0,91760,82268
AR63410,balashov,RUS60,Russia,51.55,43.16666667,0,0,10309,26800,48000,64300,83100,93100,97000,98330,82222
AR32449,jurga,RUS25,Russia,55.73333333,84.9,0,0,0,0,0,46600,62100,78300,93200,85555,81536
AUZ10101,Goulistan,OUZ00,Uzbekistan,40.49,68.78,0,0,0,0,0,0,0,43087,54360,69684,81191
AR33407,kirovchepec,RUS28,Russia,58.55,50.03333333,0,0,0,0,0,34119,54915,74759,95268,90303,80920
AR03414,kropotkin,RUS33,Russia,45.43333333,40.56666667,0,0,0,31000,41600,54000,68300,70200,75900,79185,80743
AUA18115,Shostka,UKR20,Ukraine,51.87,33.48,0,0,0,0,28592,38884,64436,82036,92882,86466,80683
AR46221501,klin,RUS40,Russia,56.33333333,36.7,0,0,0,0,29300,53300,80900,91500,94900,83178,80584
AR41417,vyborg,RUS35,Russia,60.71666667,28.75,0,0,23500,33796,39774,51100,65200,75600,80900,79224,80013
AUA06103,Berditchiv,UKR07,Ukraine,49.9,28.58,34052,50281,53351,51436,62014,53206,71475,80171,91629,86885,79600
AR71131,Khanti-Mansiisk,RUS70,Russia,61,69.01666667,0,0,0,0,0,20700,24800,28300,34500,53953,79410
AUA05103,Artemivsk,UKR06,Ukraine,48.59,38.01,0,0,19316,37354,55409,65222,82342,87084,90279,82464,78849
AR75452,troickch,RUS66,Russia,54.08333333,61.56666667,0,0,23299,30000,47000,76300,85500,87500,90100,83862,78637
AR37405,shadrinsk,RUS31,Russia,56.08333333,63.63333333,0,0,11678,19200,31100,56100,72600,81500,86700,80865,77744
AR32404,anzherosud,RUS25,Russia,56.08333333,86.03333333,0,0,0,30200,69000,115600,106200,105100,108000,86480,76669
ATU05202,Govurdak,TUR00,Turkmenistan,37.81,66.05,0,0,0,0,0,0,0,0,22200,47617,76157
AUA15109,Ismail,UKR17,Ukraine,45.35,28.83,21908,31779,22295,23120,23500,48103,70297,83126,92915,84229,75787
ABE04107,Zhlobin,BEL00,Belarus,52.89,30.03,0,0,0,10718,19301,19216,25359,35422,56695,72156,75703
AR99401,birobidgan,RUS26,Russia,48.78333333,132.9333333,0,0,0,0,29600,40700,55700,68600,83700,77250,75419
ATA01102,Kourgonteppa,TAD00,Tajikistan,37.84,68.78,0,0,0,0,0,0,0,42075,58505,68229,75000
AUA25109,Nizhin,UKR27,Ukraine,51.05,31.88,18312,16342,32113,37345,39348,46211,56320,69533,80553,76453,74365
AGE08102,Zougdidi,GEO00,Georgia,42.51,41.87,0,0,0,0,15062,31081,39896,45170,50022,68894,74200
AAZ04115,shirvan,AZE00,Azerbaijan,39.93,48.92,0,0,0,0,0,13427,33828,41583,58253,67497,73900
AR11410,Kotlas,RUS05,Russia,61.25,46.65,0,0,0,0,17300,62555,66626,73948,82491,74082,73422
AAZ02102,Naxtchivan,AZE00,Azerbaijan,39.21,45.41,0,0,0,0,15694,25340,33279,40384,59754,67467,72700
AR36450,chapajevsk,RUS59,Russia,52.98333333,49.71666667,0,0,0,17000,58100,83300,86100,84600,98000,73912,72689
AR07407,georgijevsk,RUS62,Russia,44.15,43.46666667,0,0,12115,22200,31600,35100,44200,53600,62900,70575,72126
AUZ05105,Uchqo'rg'on,OUZ00,Uzbekistan,41.19,71.73,0,0,0,0,0,0,0,50526,65982,63111,71393
AR07258501,mihajlovsk,RUS62,Russia,45.13333333,42.03333333,0,0,0,0,0,12300,21500,32300,43000,58153,71018
AUZ05102,Chust,OUZ00,Uzbekistan,41,71.24,0,0,0,0,0,0,0,35347,46424,60387,70993
AR22228503,zavolzhje,RUS42,Russia,56.63333333,43.4,0,0,0,11200,16100,47000,69100,77200,78800,76413,70964
AR92415,elabuga,RUS65,Russia,55.76666667,52.03333333,0,0,0,11200,15000,22000,31700,35600,53500,68663,70750
AR46418,dubna,RUS40,Russia,56.75,37.15,0,0,0,0,0,32617,43700,54900,65800,60951,70569
AUZ06104,Zarafshon,OUZ00,Uzbekistan,41.58,64.21,0,0,0,0,0,0,0,34864,46421,60090,70434
AUA01116,Feodosiya,UKR01,Ukraine,45.03,35.38,0,0,24096,27347,45032,46327,64938,76402,83912,74146,70392
AR46212501,egorjevsk,RUS40,Russia,55.38333333,39.03333333,0,0,19239,29900,56000,59300,67200,72200,73900,68303,70133
ABE04115,Svetlagorsk,BEL00,Belarus,52.63,29.73,0,0,0,0,0,0,40265,54772,69475,72336,69757
AKA09102,Balkash,KAZ001,Kazakhstan,46.85,75,0,0,0,0,0,53031,75965,78145,86609,65179,68833
AR80410,beloreck,RUS07,Russia,53.96666667,58.4,0,0,0,19900,40600,59300,67100,71200,72400,71093,68804
AUA23110,Smila,UKR25,Ukraine,49.23,31.88,0,0,0,22953,33870,44534,55474,62282,79449,69529,68721
AUA13143,Tchervonograd,UKR15,Ukraine,50.38,24.23,0,0,0,0,0,12241,44008,54921,72047,70312,68464
AR10410,belogorsk,RUS04,Russia,50.91666667,128.4833333,0,0,0,0,34000,48800,56900,63400,73400,67422,68220
AUA03106,Kovel',UKR04,Ukraine,51.22,24.72,0,0,17697,27155,32900,24666,33351,48916,67005,66436,67911
AUZ03105,Quvasoy,OUZ00,Uzbekistan,40.3,71.97,0,0,0,0,0,0,0,50017,62039,57855,67637
AUA09107,Kaloush,UKR10,Ukraine,49.02,24.37,0,0,0,0,13800,12873,40728,60153,67531,67715,67290
AR60415,gukovo,RUS55,Russia,48.05,39.93333333,0,0,0,0,0,53000,65100,68100,67300,66648,67268
AUA14108,Pervomaisk,UKR16,Ukraine,48.05,30.85,0,0,0,31730,32975,44330,59424,72416,81652,69655,67184
AR80450,tujmazy,RUS07,Russia,54.6,53.7,0,0,0,0,0,23400,37000,43700,57900,66687,66849
ALI01101,Alytus,LIT00,Lithuania,54.4,24.05,0,0,0,0,0,12350,28074,55255,73072,71079,66841
AUA12114,Krasnodon,UKR14,Ukraine,48.3,39.74,0,0,0,0,22287,58186,69459,74919,81267,73410,66554
AR63413,voljsk,RUS60,Russia,52.05,47.38333333,15531,23499,27058,34500,56100,63400,69200,65700,65700,71124,66520
AUA12132,Sverdlovsk,UKR14,Ukraine,48.08,39.65,0,0,0,0,37086,62155,68304,73847,82809,71981,66293
AR57422,kungur,RUS52,Russia,57.43333333,56.93333333,0,0,14295,20500,36000,64800,74500,80100,81400,68943,66110
AR04537,zelengorsk,RUS34,Russia,56.1,94.58333333,0,0,0,0,0,0,17738,48700,57190,69355,66018
AR57427,lysjva,RUS52,Russia,58.1,57.78333333,0,0,0,27300,51000,73000,72800,75000,76600,71148,65931
AR41454,sosnovyjbor,RUS35,Russia,59.88333333,29.1,0,0,0,0,0,0,14000,42200,55800,66132,65901
AES01123,Narva,EST00,Estonie,59.38333333,28.2,0,16599,16599,25727,20600,27630,57863,72816,81356,68117,65881
AR82405,bujnaksk,RUS13,Russia,42.81666667,47.11666667,0,0,0,0,22100,33000,37900,46600,56800,61437,65735
AUZ08105,Qo'ng'irot,OUZ00,Uzbekistan,43.04,58.84,0,0,0,0,0,0,0,23461,29810,48607,65671
AR20410,borisglebsk,RUS78,Russia,51.36666667,42.08333333,0,0,22309,39100,52900,54400,63700,67600,72300,69392,65585
AUA06105,Korosten',UKR07,Ukraine,50.95,28.95,0,0,0,11994,30806,38041,55767,65333,72367,66589,65442
AR71405,ishim,RUS70,Russia,56.11666667,69.5,0,0,0,14100,31000,47800,56200,62500,66400,67757,65229
AR65416,bogdanvich,RUS63,Russia,56.78333333,62.05,0,0,0,0,0,42800,50900,62800,72600,69263,65225
ALE01126,Jelgava,LET00,Latvia,56.65,23.71,22948,17403,35131,33009,32100,36359,55297,67599,74704,65927,64898
ABE04114,Retchytsa,BEL00,Belarus,52.36,30.39,0,0,0,16487,29796,30602,48393,60327,69427,66400,64646
AR46238501,narofominsk,RUS40,Russia,55.38333333,36.73333333,0,0,0,15900,32000,35400,48700,55900,58300,70475,64640
AR07402,budjonovsk,RUS62,Russia,44.78333333,44.15,0,0,0,15800,23150,27900,35800,45600,55300,65687,64628
AGE12101,Akwa (Sokhoumi),GEO00,Georgia,43,41.02,0,0,0,20032,44290,64730,101798,114373,121406,43716,64478
AUZ07102,Kozon,OUZ00,Uzbekistan,39.04,65.58,0,0,0,0,0,0,0,28460,40655,54013,64332
AR65482,polevskoj,RUS63,Russia,56.45,60.18333333,0,0,0,11000,25000,47100,57600,64100,70600,66761,64191
AKI08203,Karakol,KIR00,Kyrgyzstan,42.48,78.4,0,0,0,0,0,0,0,50830,61521,57668,64170
AR92425,leninogorsk,RUS65,Russia,54.6,52.46666667,0,0,0,0,0,38600,46600,53600,62100,65592,64145
AR03423,slavnakuban,RUS33,Russia,45.25,38.11666667,0,0,15200,23619,28778,39000,51900,54100,57800,64136,63768
AR56534,zarechnyj,RUS51,Russia,53.2,45.2,0,0,0,0,0,0,11620,18690,31694,62970,63579
AAZ09105,shaki,AZE00,Azerbaijan,41.19,47.17,0,17945,24734,22965,32278,34348,43158,49475,56223,60623,63500
AR03432,tuapse,RUS33,Russia,44.1,39.08333333,0,0,0,12000,29800,36700,51400,59800,63100,64238,63233
AR20247501,rossosh,RUS78,Russia,50.2,39.58333333,0,0,0,16300,17200,30200,36400,44000,57000,62923,62865
AR80423,kumertau,RUS07,Russia,52.76666667,55.78333333,0,0,0,0,0,35923,49000,56644,67701,68503,62854
AR03417,labinsk,RUS33,Russia,44.63333333,40.73333333,0,0,0,0,0,41900,50000,54000,58000,61446,62822
AR80443,sibaj,RUS07,Russia,52.7,58.65,0,0,0,0,0,28800,37700,40300,47300,59082,62732
AR15415,klincy,RUS11,Russia,52.75,32.23333333,0,0,11900,21500,40500,42000,58100,67100,71200,67325,62510
AMO02106,Ribnita,MOL00,Moldavia,47.77,29,0,0,0,0,18753,21067,36926,51719,75828,65300,62088
AR28445,rzhev,RUS74,Russia,56.25,34.33333333,15197,13621,21265,31900,54100,49000,60700,68900,69800,63729,62026
ABE07106,Zhodzina,BEL00,Belarus,54.1,28.33,0,0,0,0,0,0,22083,33926,53744,60255,61899
AR03429,tihoreck,RUS33,Russia,45.85,40.11666667,0,0,0,19200,37000,49700,60100,63800,67100,65005,61825
AR98406,Nerioungri,RUS15,Russia,56.66666667,124.7,0,0,0,0,0,0,0,22600,72500,66269,61746
AR70202501,aleksin,RUS72,Russia,54.5,37.06666667,0,0,0,0,0,46300,61400,67200,74300,68156,61738
ABE07118,Sloutsk,BEL00,Belarus,53.03,27.56,0,0,14349,14299,21947,22740,35609,45176,57556,62717,61445
AR80425,meleuz,RUS07,Russia,52.95,55.93333333,0,0,0,0,0,17800,24900,38400,53400,62949,61408
AR60250501,saljsk,RUS55,Russia,46.48333333,41.53333333,0,0,0,0,11400,36000,50200,57000,61100,61775,61312
AUA09108,Kolomiya,UKR10,Ukraine,48.53,25.04,0,0,0,0,38300,31303,41054,52146,63323,61850,61186
AR04422,lesosibirsk,RUS34,Russia,58.23333333,92.48333333,0,0,0,0,0,16262,25026,38600,68300,65374,61146
AUZ13102,Xiva,OUZ00,Uzbekistan,41.38,60.36,0,0,0,0,0,0,0,30973,40001,52011,61132
AR17420,gushrustaln,RUS75,Russia,55.61666667,40.65,0,0,12000,17900,40200,54200,64500,71600,76400,67121,60773
AR92440,chistopolj,RUS65,Russia,55.36666667,50.63333333,0,0,20104,17500,32000,51900,60000,64300,65500,63029,60703
AR22242501,pavlovo,RUS42,Russia,55.95,43.06666667,0,0,12400,16300,32400,47900,63200,68400,71500,64814,60699
AR46256501,chehov,RUS40,Russia,55.15,37.48333333,0,0,0,0,0,14000,37600,52500,59200,72917,60677
AUA13136,Strii,UKR15,Ukraine,49.25,23.85,0,0,0,0,33600,36180,47983,55096,66522,62262,60354
AR80405,belebej,RUS07,Russia,54.1,54.13333333,0,0,0,11400,15500,26200,32500,43200,53400,60928,60183
AR41413,vsevolozhsk,RUS35,Russia,60.01666667,30.68333333,0,0,0,0,0,27800,27000,28600,31900,45310,59689
AR83410,prohladnyj,RUS19,Russia,43.75,44.03333333,0,0,0,13630,25400,28800,40100,47600,57100,61772,59595
AUA21105,Nova Kakhovka,UKR23,Ukraine,46.75,33.38,0,0,0,0,0,19885,39250,52325,68114,63017,59530
AUA20111,Lozova,UKR22,Ukraine,48.88,36.38,0,0,0,12905,22008,28730,35641,53423,72991,63562,59470
AUA25113,Prolouki,UKR27,Ukraine,50.6,32.4,0,0,18532,28624,36881,43719,57474,65303,71954,64275,59180
AR18420,mihajlovka,RUS76,Russia,50.06666667,43.23333333,0,0,0,12900,18000,35000,49800,58200,58300,60034,59153
AR03403,Anapa,RUS33,Russia,44.88333333,37.31666667,0,0,0,13300,15495,19600,29900,40100,55000,53493,58983
AR41460,tihvin,RUS35,Russia,59.63333333,33.5,0,0,0,10200,18000,18400,34000,58600,71400,63338,58843
AR10430,svobodnyj,RUS04,Russia,51.38333333,128.1333333,0,0,0,10000,44000,56900,62900,74500,80000,63889,58594
AR24411,shuja,RUS18,Russia,56.85,41.36666667,0,0,19583,35500,57900,64600,68800,72300,69400,62449,58528
AKA05105,Kaskelen,KAZ005,Kazakhstan,43.2,76.62,0,0,0,0,0,13897,23851,26850,30870,35943,58418
AAZ04117,Yevlax,AZE00,Azerbaijan,40.62,47.15,0,0,0,0,10837,20368,29462,33874,45719,53144,58300
AR71183,Kogalym,RUS70,Russia,62.26666667,74.48333333,0,0,0,0,0,0,0,0,44300,55367,58192
AUA12129,Rovenki,UKR14,Ukraine,48.08,39.37,0,0,0,11583,28416,57332,61145,61499,67989,62031,57743
AUA10104,Borispil,UKR12,Ukraine,50.35,30.95,0,0,0,0,0,17180,32365,39983,50508,54379,57563
AUZ01207,Hakkalobod,OUZ00,Uzbekistan,40.91,72.11,0,0,0,0,0,0,0,0,39300,49708,57441
AR03415,krymsk,RUS33,Russia,44.93333333,38,0,0,0,0,0,32800,41400,48200,50900,56623,57370
AKA13103,Kentau,KAZ004,Kazakhstan,43.52,68.51,0,0,0,0,0,38108,54946,62991,64228,54049,57121
AR66205501,vjazma,RUS61,Russia,55.2,34.3,0,10213,15645,19700,34000,31900,44100,51700,59000,57545,57103
AR84401,gornaltajsk,RUS02,Russia,51.95,85.96666667,0,0,0,0,24000,27500,34400,40300,46400,53538,56928
AR05403,arsenjev,RUS53,Russia,44.16666667,133.2666667,0,0,0,0,11000,26300,47300,60100,70000,62896,56742
AUZ08101,Beruniy,OUZ00,Uzbekistan,41.69,60.75,0,0,0,0,0,0,0,29702,37778,48403,56378
AR82415,izberbash,RUS13,Russia,42.56666667,47.86666667,0,0,0,0,0,11200,17300,21300,28100,39365,56301
AR22224501,vyksa,RUS42,Russia,55.31666667,42.18333333,0,0,0,10700,26500,40300,46400,53700,61100,61657,56196
AUA06108,Novograd-Volynskii,UKR07,Ukraine,50.6,27.62,0,0,16904,14452,23732,27580,41194,48544,55238,56093,55973
AUA12103,Antetsit,UKR14,Ukraine,48.12,39.09,0,0,0,0,23481,55638,54673,60687,71655,63196,55897
AR20221501,liski,RUS78,Russia,50.98333333,39.51666667,0,0,0,15861,25500,37600,48700,52400,54000,55893,55864
ALE01127,J_rmala,LET00,Latvia,56.96,23.75,0,0,0,0,0,37954,53833,60947,66026,55328,55858
AUZ12104,Chinoz,OUZ00,Uzbekistan,40.94,68.77,0,0,0,0,0,0,0,13959,43181,50552,55700
AR76410,krasnokamen,RUS80,Russia,50.1,118.0333333,0,0,0,0,0,0,13800,51000,66900,55920,55668
AES01115,Kohtla-Järve,EST00,Estonie,59.4,27.28333333,0,0,0,0,0,56054,68318,72675,76581,58988,55580
ATA05104,Istaravshan,TAD00,Tajikistan,39.91,69.01,0,0,0,0,0,0,0,37662,45763,51280,55000
AR71139,njaganj,RUS70,Russia,62.13333333,65.38333333,0,0,0,0,0,0,0,0,54100,52610,54903
AR66236501,roslavlj,RUS61,Russia,53.95,32.85,0,0,17776,25500,41000,37400,48500,56000,60500,57701,54898
AR03408,gelendgik,RUS33,Russia,44.55,38.08333333,0,0,0,0,0,16441,29100,36500,47700,50012,54813
AUA08106,Energograd,UKR09,Ukraine,47.5,34.47,0,0,0,0,0,0,0,14043,47100,55874,54389
AGE11101,Gori,GEO00,Georgia,41.97,44.11,0,0,10269,10192,19628,35061,48181,55984,68924,49516,54200
AUZ08107,To'rtko'l,OUZ00,Uzbekistan,41.55,61,0,0,0,0,0,0,0,25507,36346,46515,54141
AR03253501,timashevsk,RUS33,Russia,45.61666667,38.93333333,0,0,0,0,0,19000,29100,39100,45600,54116,53921
AR03406,belorechnsk,RUS33,Russia,44.76666667,39.88333333,0,0,0,0,0,35900,36000,43000,51200,54028,53891
AKI03204,Tokmok,KIR00,Kyrgyzstan,42.84,75.29,0,0,0,0,0,0,0,58655,72927,55079,53754
AR49408,borovichi,RUS43,Russia,58.4,33.9,0,0,0,18800,41000,44100,54800,59600,63000,57755,53699
AAZ10108,Xankandi,AZE00,Azerbaijan,39.82,46.75,0,0,0,0,10459,20333,30293,38980,56705,54572,53300
AAR07105,Khrazdan,ARM00,Armenia,40.07,44.44,0,0,0,0,0,0,26833,41364,60839,52831,53200
AR46252501,solnecgorsk,RUS40,Russia,56.18333333,36.98333333,0,0,0,0,0,24200,33500,48000,55600,58374,52996
AUA03109,Novovolinsk,UKR04,Ukraine,50.73,24.17,0,0,0,0,0,23895,41187,46007,55171,53646,52905
AR04426,nazarovo,RUS34,Russia,56,90.38333333,0,0,0,0,0,29700,44200,53700,64400,56539,52829
AR41425,kirishi,RUS35,Russia,59.45,32.01666667,0,0,0,0,0,0,27300,44200,53000,55634,52826
AUA20108,Izyoum,UKR22,Ukraine,49.21,37.26,0,0,13108,25753,34859,37595,51603,60516,64334,55866,52821
AUZ09105,Urgut,OUZ00,Uzbekistan,39.4,67.24,0,0,0,0,0,0,0,21068,37060,46112,52750
ATU01101,Bezmain,TUR00,Turkmenistan,38.05,58.21,0,0,0,0,0,0,0,21537,31588,43341,52654
AR25445,cheremhovo,RUS17,Russia,53.15,103.0666667,0,0,0,14500,55600,122800,98700,76700,73600,60107,52650
AR28414,Vychnii Volochek,RUS74,Russia,57.58333333,34.56666667,0,0,16612,31300,63600,66400,73700,71700,64800,56405,52326
AUA16107,Komsomolsk,UKR18,Ukraine,49.03,33.67,0,0,0,0,0,0,0,14555,37909,51762,51959
ABE02113,Kobryn,BEL00,Belarus,52.22,24.37,0,0,10408,13580,15300,13686,24934,31811,44829,50760,51265
AKA06102,Koulsary,KAZ006,Kazakhstan,46.98,54.02,0,0,0,0,0,12749,16427,19731,32652,41484,51097
AAZ07104,Lankaran,AZE00,Azerbaijan,38.75,48.85,0,0,0,11878,16611,25209,35505,40312,45020,48338,50500
AKA16107,Ridder,KAZ003,Kazakhstan,50.35,83.51,0,0,0,0,0,66812,72074,68135,68706,54018,50500
AR54405,livny,RUS46,Russia,52.41666667,37.6,0,10073,20448,19200,12000,23900,37300,44900,51700,52841,50430
AR65542,lesnoj,RUS63,Russia,58.63333333,59.78333333,0,0,0,0,0,0,0,0,0,53195,50364
AUA15105,Bilgorod-Dnistrovsk,UKR17,Ukraine,46.2,30.35,25339,19807,28258,21950,19600,21832,32928,46795,55631,51617,50262
AR60417,doneck,RUS55,Russia,48.33333333,39.93333333,0,0,0,0,0,42400,44085,50086,53933,53258,50085
AR95408,sajanogorsk,RUS34,Russia,53.1,91.4,0,0,0,0,0,0,13700,21900,50200,50255,49889
AKI06203,Ozgon,KIR00,Kyrgyzstan,40.77,73.3,0,0,0,0,0,0,0,29413,34167,38470,49882
AR53408,buguruslan,RUS47,Russia,53.61666667,52.41666667,0,0,12109,17600,20900,42500,49500,54400,54100,53893,49737
AR28426,kimry,RUS74,Russia,56.86666667,37.35,0,0,0,18500,35200,41200,53400,57800,61500,53650,49623
AR71133,megion,RUS70,Russia,61.03333333,76.1,0,0,0,0,0,0,0,23600,39800,46566,49471
AUA18109,Okhtirka,UKR20,Ukraine,50.31,34.89,14205,13583,23399,26952,28433,32031,41354,45301,50726,50258,49325
AR82430,kizljar,RUS13,Russia,43.83333333,46.7,0,10075,15469,20949,24000,25600,29700,31300,39700,48457,49169
AR96234501,urusmartan,RUS167,Russia,43.13333333,45.55,0,0,0,0,13400,11700,24300,27900,32900,39982,49071
AR75545,snezhinsk,RUS66,Russia,56.08333333,60.73333333,0,0,0,0,0,0,0,0,0,50451,48896
ABE05112,Slonim,BEL00,Belarus,53.09,25.32,0,0,15863,22726,26700,20389,30279,36659,45741,51640,48812
AUA10124,Fastiv,UKR12,Ukraine,50.08,29.92,0,0,0,13876,20732,30240,42328,51179,53861,51671,48684
AR41422,kingisepp,RUS35,Russia,59.36666667,28.6,0,0,0,0,0,0,17300,38800,50000,50295,48667
AUA16110,Loubni,UKR18,Ukraine,50.02,33,0,0,10097,20834,27396,29442,40426,54216,59478,52117,48496
AR01406,zarinsk,RUS02,Russia,53.7,84.91666667,0,0,0,0,0,0,0,18300,50200,50368,48456
AUA04107,Zhovti Vodi,UKR05,Ukraine,48.34,33.51,0,0,0,0,0,32406,40334,51653,61690,52950,48427
AR36424,otradnyj,RUS59,Russia,53.36666667,51.35,0,0,0,0,0,27900,44400,45200,48800,50048,48359
AR65403,alapajevsk,RUS63,Russia,57.85,61.7,0,0,0,14468,28859,55840,59861,59833,62057,55410,48196
AR03227501,kurganinsk,RUS33,Russia,44.88333333,40.6,0,0,0,0,0,24300,34800,37600,40800,46618,47974
AR94430,mozhga,RUS49,Russia,56.45,52.21666667,0,0,0,0,22200,30000,38900,40300,46000,47119,47959
AR41450,sertolovo,RUS35,Russia,60.15,30.2,0,0,0,0,0,0,0,0,17700,38444,47854
AR66258501,jarcevo,RUS61,Russia,55.06666667,32.68333333,0,0,18300,18700,36700,25600,36700,40700,53200,52617,47853
AUZ05103,Kosonsoy,OUZ00,Uzbekistan,41.26,71.55,0,0,0,0,0,0,0,21998,31217,40605,47737
AR96237501,shali,RUS167,Russia,43.15,45.9,0,0,0,0,10600,11900,18600,21900,25000,40356,47715
AR28450,torzhok,RUS74,Russia,57.03333333,34.96666667,13373,10160,12698,14300,29300,34900,45400,47200,50000,48967,47702
AGE08105,Poti,GEO00,Georgia,42.15,41.67,0,0,0,13109,25464,42068,45979,48508,50922,47149,47700
AUA11112,Svitlovodsk,UKR13,Ukraine,49.08,33.25,0,0,0,0,0,13254,34269,47166,55591,50001,47640
AR41408,volhov,RUS35,Russia,59.91666667,32.35,0,0,0,0,0,36600,47000,49700,50300,46596,47344
AR32410,berjozvskij,RUS25,Russia,55.66666667,86.25,0,0,0,0,0,21900,34800,41400,51300,48299,47292
AR46411,dzerdginski,RUS40,Russia,55.63333333,37.85,0,0,0,0,0,15400,23900,30800,36100,41488,47125
ATA04102,Toursounzoda,TAD00,Tajikistan,38.51,68.23,0,0,0,0,0,0,0,28493,40593,44448,47000
AR57440,chusovoj,RUS52,Russia,58.28333333,57.81666667,0,0,0,18000,43000,60700,58200,56400,57900,51615,46740
AKA03108,Stepnogor,KAZ001,Kazakhstan,52.35,71.89,0,0,0,0,0,0,25956,45794,58200,43802,46712
AR71174,Nadym,RUS70,Russia,65.53333333,72.51666667,0,0,0,0,0,0,0,26100,52600,45943,46550
ALI04106,Marijampol_,LIT00,Lithuania,54.57,23.35,0,0,0,10080,13104,19621,28763,38451,50616,48428,46256
AR66241501,safonovo,RUS61,Russia,55.1,33.25,0,0,0,0,0,31700,45900,53000,56600,48209,46116
ATA05106,Konibodom,TAD00,Tajikistan,40.28,70.42,0,0,0,0,0,0,0,32176,37841,42703,46000
AR17430,koljchugino,RUS75,Russia,56.3,39.38333333,0,0,0,11600,29600,37900,41600,43700,48006,47059,45804
AR96404,gudermes,RUS167,Russia,43.35,46.1,0,0,0,0,10700,18600,32400,34000,38100,33756,45643
AR97407,kanash,RUS69,Russia,55.51666667,47.5,0,0,0,0,18800,33600,40700,46900,54600,50593,45608
AKA05108,Talgar,KAZ005,Kazakhstan,43.3,77.23,0,0,0,0,0,20071,31273,36952,43645,44107,45529
AUZ02102,G'ijduvon,OUZ00,Uzbekistan,40.1,64.68,0,0,0,0,0,0,0,0,30486,39064,45503
AAR09104,Kapan,ARM00,Armenia,39.2,46.41,0,0,0,0,0,19315,29916,35889,42375,45708,45500
AR68425,rasskazovo,RUS64,Russia,52.66666667,41.88333333,0,0,12000,25000,30800,33800,40000,43600,49100,46516,45484
AUZ14207,Sherobod,OUZ00,Uzbekistan,37.71,67.07,0,0,0,0,0,0,0,0,28200,37910,45482
AR47415,monchegorsk,RUS41,Russia,67.93333333,32.9,0,0,0,0,0,45500,46000,51400,68700,52242,45381
AR50415,kujbyshev,RUS44,Russia,55.45,78.3,0,0,0,0,0,30400,40200,46500,51200,48848,45298
AR75448,satka,RUS66,Russia,55.05,59.05,0,0,0,0,28400,43100,44100,46200,50700,49686,45184
AR25440,Oust-Kout,RUS17,Russia,56.8,105.8333333,0,0,0,0,0,21300,33200,49600,61200,49951,45061
AR25432,tulun,RUS17,Russia,54.56666667,100.5666667,0,0,0,0,28000,41800,49400,51800,52900,51848,44603
AUA18111,Romni,UKR20,Ukraine,50.75,33.47,0,0,22510,25174,25962,48040,52529,57051,57051,49982,44429
AUZ13103,Xonqa,OUZ00,Uzbekistan,41.47,60.78,0,0,0,0,0,0,0,0,28981,37699,44321
AR14450,shebekino,RUS08,Russia,50.41666667,36.9,0,0,0,0,0,13900,26000,39500,44600,45119,44277
AR05420,spasskdalni,RUS53,Russia,44.6,132.8166667,0,0,0,0,23300,39600,45100,53200,60100,51691,44166
AKA03110,Schoutchinsk,KAZ001,Kazakhstan,52.93,70.2,0,0,0,0,0,39208,40432,47948,55539,43001,44106
AES01129,Pärnu,EST00,Estonie,58.38333333,24.5,0,12898,12966,19091,22100,36067,46316,51254,53885,45040,44083
ABE05103,Vaukavysk,BEL00,Belarus,53.15,24.46,0,0,10323,14390,16700,18283,23266,29074,40374,46720,44044
AR01410,kamenjnaobi,RUS02,Russia,53.8,81.33333333,0,0,0,22900,25504,30100,35600,40000,42500,44375,43880
AUA22113,Shepetivka,UKR24,Ukraine,50.18,27.07,0,0,0,14675,24830,31898,38707,43484,50876,47755,43706
AR60206501,belkalitva,RUS55,Russia,48.16666667,40.78333333,0,0,0,0,0,23500,30900,38000,47800,47347,43688
AUZ03201,Altyarik,OUZ00,Uzbekistan,40.38,71.5,0,0,0,0,0,0,0,0,30700,38087,43491
AR87420,Petchora,RUS29,Russia,65.13333333,57.21666667,0,0,0,0,0,30600,37800,56400,64700,48700,43458
AR71137,raduzhnyj,RUS70,Russia,62.13333333,77.46666667,0,0,0,0,0,0,0,0,43700,47060,43394
AR03257501,ustjlabinsk,RUS33,Russia,45.21666667,39.66666667,0,0,0,11718,17015,30200,35600,39200,41800,43824,43268
AR54410,mcensk,RUS46,Russia,53.28333333,36.56666667,0,12288,10891,10000,11513,14300,27800,41800,48400,47807,43216
AAZ07102,Calilabad,AZE00,Azerbaijan,39.21,48.5,0,0,0,0,0,0,15629,19962,25846,35420,43000
ATA05103,Isfara,TAD00,Tajikistan,40.12,70.63,0,0,0,0,0,0,0,27320,34524,39550,43000
ATA05107,Pantchakent,TAD00,Tajikistan,39.5,67.61,0,0,0,0,0,0,0,17153,27903,36469,43000
AR08403,amursk,RUS26,Russia,50.21666667,136.9,0,0,0,0,0,0,24000,40800,58400,47759,42977
AKI08201,Balyktchy,KIR00,Kyrgyzstan,42.46,76.18,0,0,0,0,0,0,0,33319,42438,39331,42771
ALE01173,Ventspils,LET00,Latvia,57.39,21.56,0,0,0,11859,14900,27420,40467,47782,50438,44004,42734
AR38408,kurchatov,RUS32,Russia,51.66666667,35.65,0,0,0,0,0,0,0,21800,41100,45556,42691
AUZ09103,Oqtosh,OUZ00,Uzbekistan,39.92,65.93,0,0,0,0,0,0,0,22186,29999,37302,42655
AAZ01215,Mashtagha,AZE00,Azerbaijan,40.53,50,0,0,0,0,11633,16952,22233,31920,40294,41706,42600
AR71171,Salekhard,RUS70,Russia,66.53333333,66.63333333,0,0,0,0,12800,16600,21900,24900,32300,36827,42494
AR70220501,efremov,RUS72,Russia,53.15,38.11666667,0,0,0,10000,26700,28700,48200,53000,56700,47256,42350
AR69410,strezhevoj,RUS71,Russia,60.73333333,77.58333333,0,0,0,0,0,0,0,23100,43300,43815,42216
AUA04115,Ordzhnikidze,UKR05,Ukraine,47.67,34.05,0,0,0,0,0,17523,38381,39037,45806,44499,42061
AR78405,peslavzales,RUS79,Russia,56.73333333,38.85,0,0,10639,13400,19900,23100,30100,37500,42300,43379,41923
AR12402,ahtubinsk,RUS06,Russia,48.28333333,46.16666667,0,0,0,12036,15345,22300,43500,47400,50300,45542,41898
AR92417,zainsk,RUS65,Russia,55.3,52.01666667,0,0,0,0,0,17616,10184,30300,36600,41088,41798
AR27430,sovetskkl,RUS20,Russia,55.08333333,21.88333333,0,0,0,0,0,31900,38500,40200,41900,43224,41709
AR63435,pugachjov,RUS60,Russia,52.01666667,48.8,0,0,12504,17500,22387,32700,34000,39050,40900,41436,41705
AKA14101,Aksou,KAZ002,Kazakhstan,52.03,76.92,0,0,0,0,0,0,28133,41572,47067,40293,41677
AR71132,langepas,RUS70,Russia,61.25,75.16666667,0,0,0,0,0,0,0,0,25600,37182,41675
AR80415,birsk,RUS07,Russia,55.41666667,55.53333333,0,0,0,12000,21200,24800,29600,30200,34900,39992,41637
AR18425,urjupinsk,RUS76,Russia,50.8,42.01666667,0,0,11286,14400,19601,31500,38200,40200,43000,41960,41594
AR68420,morshansk,RUS64,Russia,53.45,41.8,10525,12278,26458,28000,35200,40900,44200,47700,50100,44486,41550
AR71185,pytjah,RUS70,Russia,60.75,72.78333333,0,0,0,0,0,0,0,17101,44862,41813,41453
AR65448,kachkanar,RUS63,Russia,58.7,59.48333333,0,0,0,0,0,0,33000,41300,48300,44664,41429
AUA16111,Mirgorod,UKR18,Ukraine,49.97,33.6,0,0,10037,14173,18690,24646,28407,39572,46663,42668,41374
ATU06103,Yoloten,TUR00,Turkmenistan,37.3,62.35,0,0,0,0,0,0,0,16266,18644,30525,41345
AR28430,konakovo,RUS74,Russia,56.7,36.76666667,0,0,0,0,11900,13700,29500,36800,42500,42335,41303
AR63440,rtischevo,RUS60,Russia,52.25,43.78333333,0,0,0,11400,17266,32700,37100,41100,44300,44185,41295
AR11525,mirnyja,RUS05,Russia,62.76666667,40.33333333,0,0,0,0,0,13316,13330,13267,14027,41802,41289
AR17415,vjazniki,RUS75,Russia,56.23333333,42.16666667,0,0,0,17000,33500,39400,42700,45900,45400,40398,41252
AR03221501,korenovsk,RUS33,Russia,45.46666667,39.45,0,0,0,0,0,18200,26300,35000,35800,40844,41179
AR87423,Oussinsk,RUS29,Russia,66,57.53333333,0,0,0,0,0,0,0,19500,47200,45358,41100
AR78417,tutajev,RUS79,Russia,57.88333333,39.53333333,0,0,0,11800,18500,17200,16800,23500,39800,42644,41001
AUA17107,Kouznetsovsk,UKR19,Ukraine,51.68,25.87,0,0,0,0,0,0,0,0,29858,38868,40872
AR60226501,krasnysulin,RUS55,Russia,47.88333333,40.06666667,0,0,0,14200,33900,39800,41700,42600,43100,44187,40866
AUZ08102,Chimboy,OUZ00,Uzbekistan,42.94,59.78,0,0,0,0,0,0,0,23624,27366,35077,40866
AUA02112,Moguilev-Podolskii,UKR03,Ukraine,48.45,27.8,0,0,22315,22271,21871,25639,31593,37959,44161,41196,40810
AR25426,sajansk,RUS17,Russia,54.11666667,102.1666667,0,0,0,0,0,0,0,0,38200,43468,40786
AUZ12110,Parkent,OUZ00,Uzbekistan,41.29,69.68,0,0,0,0,0,0,0,0,31542,36886,40615
AUA15113,Kotovsk,UKR17,Ukraine,47.75,29.53,0,0,0,0,16795,27383,36463,41250,43078,40519,40569
AR15420,novozybkov,RUS11,Russia,52.53333333,31.93333333,0,0,15362,19900,24500,25900,34400,41200,44900,43038,40552
AR29410,ljudinovo,RUS22,Russia,53.86666667,34.45,0,0,12000,15633,17600,26400,33900,39800,43700,41829,40550
AR07220501,izobiljnyj,RUS62,Russia,45.36666667,41.71666667,0,0,0,0,0,11100,23200,29200,32900,38926,40546
AR32422,mariinsk,RUS25,Russia,56.21666667,87.75,0,0,0,16371,22300,40800,39700,39500,41000,42977,40522
AR27239501,chernahovsk,RUS20,Russia,54.63333333,21.81666667,0,0,0,0,0,29100,33400,35600,39600,44323,40464
AR03205501,apsheronsk,RUS33,Russia,44.46666667,39.71666667,0,0,0,0,0,29800,32900,33300,34500,39608,40229
ALI08101,Mazeikiai,LIT00,Lithuania,56.32,22.33,0,0,0,0,0,0,13468,26101,43919,42350,40172
AUA14110,Youzhnooukrainsk,UKR16,Ukraine,47.82,31.18,0,0,0,0,0,0,0,0,36684,38198,40027
AKA05104,Kapshagai,KAZ005,Kazakhstan,43.88,77.08,0,0,0,0,0,14072,15071,25629,38300,33994,39855
AR65468,krasnufimsk,RUS63,Russia,56.61666667,57.76666667,0,0,0,11700,18473,37300,38400,41200,45600,43595,39762
AR11408,korjazhma,RUS05,Russia,61.3,47.16666667,0,0,0,0,0,11200,33200,42800,41800,42811,39629
AR56229501,kamenka,RUS51,Russia,53.18333333,44.05,0,0,0,0,0,25200,30100,35300,40100,40712,39579
AR30207501,elizovo,RUS23,Russia,53.18333333,158.3833333,0,0,0,0,0,0,14500,36200,46900,41533,39548
AAZ08105,Xatchmaz,AZE00,Azerbaijan,41.47,48.81,0,0,0,0,0,17123,22313,26012,28990,35109,39500
AR18428,frolovo,RUS76,Russia,49.76666667,43.65,0,0,0,0,17400,26400,33400,39500,41700,41132,39489
AR71138,Ouraï,RUS70,Russia,60.13333333,64.78333333,0,0,0,0,0,0,17400,21500,37200,38872,39435
AR65426,zarechnyjs,RUS63,Russia,56.81666667,61.31666667,0,0,0,0,0,18626,25969,30549,41411,40559,39430
AKA16103,Zyryanovsk,KAZ003,Kazakhstan,49.74,84.27,0,0,0,0,0,54119,56206,51132,52838,42362,39320
AAZ04101,Aghcabadi,AZE00,Azerbaijan,40.05,47.46,0,0,0,0,0,13985,17036,20296,25162,33108,39200
AR41466,tosno,RUS35,Russia,59.55,30.9,0,0,0,0,0,15100,19600,24100,32500,38683,39127
AUA12123,Pervomaisk,UKR14,Ukraine,48.63,38.56,0,0,0,10745,30131,43671,45779,44525,51025,42674,39105
AR14410,aleksejevka,RUS08,Russia,50.63333333,38.68333333,0,0,13600,15801,16900,20100,25600,31600,36600,39312,39026
AR75434,kyshtym,RUS66,Russia,55.7,60.55,0,0,0,16000,27800,34300,36100,39800,42900,41929,38950
AR71126605,ljantor,RUS70,Russia,61.61666667,72.16666667,0,0,0,0,0,0,0,0,22100,33011,38922
AUA03102,Volodimir-Volynskii,UKR04,Ukraine,50.85,24.33,0,0,0,19680,26800,20928,28412,33777,38263,38152,38768
AR90230501,mozdok,RUS167,Russia,43.75,44.65,0,0,0,14000,19100,25600,32400,34400,38000,42865,38748
AR05417,partizansk,RUS53,Russia,43.13333333,133.1333333,0,0,0,0,36900,48500,48300,46300,49500,43670,38648
AR04440,sharypovo,RUS34,Russia,55.53333333,89.2,0,0,0,0,0,0,0,0,39800,41532,38570
AR07246501,svetlograd,RUS62,Russia,45.33333333,42.85,0,0,0,0,18000,24300,30900,33600,37200,39370,38520
AAZ05111,shamkir,AZE00,Azerbaijan,40.83,46.02,0,0,0,0,0,0,11657,21965,27917,34063,38500
AR19420,sokol,RUS77,Russia,59.46666667,40.11666667,0,0,0,0,29800,41700,48300,45300,46600,43042,38454
AR65432,irbit,RUS63,Russia,57.66666667,63.06666667,0,0,20062,11700,26000,45300,49300,51300,51700,43318,38352
AR53413,gaj,RUS47,Russia,51.46666667,58.45,0,0,0,0,0,0,28300,35700,41700,41621,38302
AAZ01212,Hövsan,AZE00,Azerbaijan,40.37,50.09,0,0,0,0,0,0,0,0,28508,34225,38300
AR65486,rezh,RUS63,Russia,57.36666667,61.4,0,0,0,0,0,21300,29900,37900,43400,39881,38213
AR97404,alatyr,RUS69,Russia,54.85,46.58333333,0,0,12209,22400,29800,40100,43500,45300,46600,43161,38202
AAZ04103,Barda,AZE00,Azerbaijan,40.37,47.13,0,0,0,0,0,13033,20788,24122,30908,35181,38100
AUA17102,Doubno,UKR19,Ukraine,50.42,25.75,10098,11125,14257,18011,20000,18651,25442,34687,40806,38914,38053
AKA11201,Oiteke bi,KAZ004,Kazakhstan,45.85,62.16,0,0,0,0,0,19499,34815,41565,32059,35199,38046
AR03251501,temrjuk,RUS33,Russia,45.26666667,37.38333333,0,0,14734,15900,23200,22200,23200,31900,33200,36118,38014
AKA13101,Arys,KAZ004,Kazakhstan,42.43,68.8,0,0,0,0,0,22743,26414,27995,33523,35411,37996
AKI03202,Karabalta,KIR00,Kyrgyzstan,42.83,73.84,0,0,0,0,0,0,0,47274,53887,44607,37950
AUZ10103,Yangiyer,OUZ00,Uzbekistan,40.27,68.82,0,0,0,0,0,0,0,26481,28593,34039,37894
AR75464,juzhuraljsk,RUS66,Russia,54.45,61.25,0,0,0,0,0,22400,35300,39200,41300,39275,37890
AR80455,uchaly,RUS07,Russia,54.31666667,59.38333333,0,0,0,0,0,22597,21800,27600,32400,37196,37771
AAZ10101,Aghdam,AZE00,Azerbaijan,39.99,46.93,0,0,0,0,10746,16061,21277,23559,28031,33675,37700
AR24403,vichuga,RUS18,Russia,57.2,41.91666667,0,0,0,24800,46900,51700,52600,52000,49700,40870,37609
AKA16101,Ayagez,KAZ003,Kazakhstan,47.97,80.44,0,0,0,0,0,31061,35827,38969,42729,38078,37537
AR05407,dalnegorsk,RUS53,Russia,44.56666667,135.6166667,0,0,0,0,0,16900,33500,43400,49800,40069,37503
AUA21104,Kakhovka,UKR23,Ukraine,46.81,33.48,0,0,0,0,12601,18628,28472,38742,42895,38230,37342
AUA14102,Voznesensk,UKR16,Ukraine,47.55,31.33,0,0,15748,20813,23498,31043,36457,40721,43881,42164,37315
AR46467,protvino,RUS40,Russia,54.86666667,37.21666667,0,0,0,0,0,0,13000,25000,34500,36175,37308
AUA01106,Dzhankoi,UKR01,Ukraine,45.72,34.4,0,0,0,0,19581,28457,43459,48819,53464,42873,37275
AR98404,mirnyj,RUS15,Russia,62.53333333,113.95,0,0,0,0,0,0,23800,30500,38800,39981,37179
AR25424,nizhnudinsk,RUS17,Russia,54.9,99.01666667,0,0,0,10400,17470,38800,39700,41400,43800,39624,37056
AR05411,lesozavodsk,RUS53,Russia,45.46666667,133.4,0,0,0,0,24100,32100,35000,38800,44100,42185,36975
AUZ03104,Quva,OUZ00,Uzbekistan,40.52,72.06,0,0,0,0,0,0,0,22838,26062,32362,36975
AR83403,baksan,RUS19,Russia,43.68333333,43.53333333,0,0,0,0,0,0,18400,21800,28800,35805,36857
ATU04102,Koneourgens,TUR00,Turkmenistan,42.32,59.17,0,0,0,0,0,0,0,17896,21827,30136,36754
AR90235501,beslan,RUS167,Russia,43.18333333,44.53333333,0,0,0,0,0,19400,26900,29900,32500,35550,36724
AAZ04114,Salyan,AZE00,Azerbaijan,39.59,48.98,0,0,11787,12980,13554,17197,24228,26196,30396,34157,36700
AKA10104,Lisakovsk,KAZ001,Kazakhstan,52.54,62.49,0,0,0,0,0,0,11208,24602,33134,34494,36622
AKA08104,Shou,KAZ004,Kazakhstan,43.6,73.76,0,0,0,0,0,29632,34314,33393,37395,33941,36531
AKA13102,Zheticai,KAZ004,Kazakhstan,40.78,68.33,0,0,0,0,0,0,15976,27130,27807,29912,36494
AR71415,jalutorovsk,RUS70,Russia,56.65,66.3,0,0,0,0,13600,20200,25400,32900,36800,36088,36494
AR60232501,millerovo,RUS55,Russia,48.91666667,40.4,0,0,0,12800,24000,30000,34600,36200,37300,38498,36493
AR46223554,Nakhabino,RUS40,Russia,55.84,38.07,0,0,0,0,0,12461,15695,16216,18958,28217,36451
AUZ06103,Uchquduq,OUZ00,Uzbekistan,42.16,63.56,0,0,0,0,0,0,0,20560,24040,31096,36432
AUA10108,Vasil'kiv,UKR12,Ukraine,50.18,30.32,0,10191,13132,20743,15169,20450,26741,32852,40277,39421,36421
AR41438,luga,RUS35,Russia,58.73333333,29.85,0,0,0,12300,17463,25500,31900,37700,41800,40434,36409
ABE05113,Smargon,BEL00,Belarus,54.58,26.4,0,0,0,0,0,0,10095,16503,30839,36200,36356
AAZ06104,shamaxi,AZE00,Azerbaijan,40.63,48.64,0,0,20007,16392,14991,13066,17986,21171,24681,31339,36300
AR82425,kiziljurt,RUS13,Russia,43.2,46.86666667,0,0,0,0,0,0,13100,21700,33700,30264,36187
AKA11102,Baikonyr,KAZ004,Kazakhstan,45.67,63.33,0,0,0,0,0,0,0,0,70800,46720,36175
AR24409,furmanov,RUS18,Russia,57.25,41.1,0,0,0,21000,36000,38200,40200,44200,46200,39691,36149
AUZ01210,Karabagis,OUZ00,Uzbekistan,40.52,72.38,0,0,0,0,0,0,0,0,24700,31242,36102
AUA22108,Netishin,UKR24,Ukraine,50.35,26.63,0,0,0,0,0,0,0,0,28906,34407,36072
AAZ04106,Göytchay,AZE00,Azerbaijan,40.62,47.76,0,0,0,0,10537,16485,25922,29206,30934,33921,35900
AR34430,sharja,RUS30,Russia,58.36666667,45.5,0,0,0,14300,14300,22300,39227,39086,42129,38476,35891
AMO01107,Cahuk,MOL00,Moldavia,45.91,28.19,0,0,0,0,10600,16223,26249,33128,42904,36397,35800
AR07250501,zelenokumsk,RUS62,Russia,44.41666667,43.88333333,0,0,0,0,10700,11500,29700,32100,35100,40340,35790
AR22238501,kulebaki,RUS42,Russia,55.41666667,42.51666667,0,0,0,15000,32800,44700,46300,48100,45700,39072,35762
AR47408,kandalaksha,RUS41,Russia,67.16666667,32.41666667,0,0,0,0,0,38200,42700,45400,54100,40564,35659
AR10432,Tynda,RUS04,Russia,55.15,124.7166667,0,0,0,0,0,0,0,41700,62000,40094,35574
AUA02106,Zhmerinka,UKR03,Ukraine,49.03,28.1,0,0,0,19560,23703,29368,36195,38364,41080,37207,35530
AR25428,tajshet,RUS17,Russia,55.93333333,98.01666667,0,0,0,0,11700,33500,34200,38200,42400,38535,35481
AUA22110,Slavouta,UKR24,Ukraine,50.3,26.87,0,0,0,0,15147,20216,25573,29323,34696,34410,35442
AR65496,tavda,RUS63,Russia,58.05,65.26666667,0,0,0,0,0,48000,47400,46400,45700,40686,35415
AR56256501,serdobsk,RUS51,Russia,52.46666667,44.21666667,0,0,0,18700,12800,26100,33800,39900,43500,37738,35387
AR14420,valujki,RUS08,Russia,50.18333333,38.11666667,0,0,0,10200,18700,18100,29100,32100,34900,35790,35322
AR03213501,guljkevichi,RUS33,Russia,45.36666667,40.68333333,0,0,0,0,0,20300,22100,27300,31700,35141,35225
AAZ01214,Lökbatan,AZE00,Azerbaijan,40.33,49.73,0,0,0,0,0,13159,15518,16743,23365,30112,35200
AMO01146,Soroca,MOL00,Moldavia,48.16,28.3,0,0,15351,14617,14300,15195,21924,29930,42297,29914,35200
AR33404,vjatskipol,RUS28,Russia,56.21666667,51.06666667,0,0,0,0,10600,25700,32700,37600,44500,40282,35159
AR46218501,istra,RUS40,Russia,55.91666667,36.86666667,0,0,0,0,0,0,16300,30300,35000,33652,35106
AUZ07103,Qamashi,OUZ00,Uzbekistan,38.82,66.46,0,0,0,0,0,0,0,15916,22270,29516,35102
AUA18104,Gloukhiv,UKR20,Ukraine,51.68,33.92,0,0,14828,16029,21048,22962,27096,32386,35869,35808,35089
ALE01149,R_zekne,LET00,Latvia,56.5,27.32,0,0,10795,12468,13300,21429,30803,37225,42181,38054,35074
AUA13130,Sambir,UKR15,Ukraine,49.52,23.2,0,0,0,0,23200,23649,29253,33868,40355,36332,35044
AR24407,tejkovo,RUS18,Russia,56.85,40.55,0,0,0,17500,27300,28300,41600,34700,38100,36686,34993
AR03201501,abinsk,RUS33,Russia,44.86666667,38.16666667,0,0,0,0,0,14800,21200,25300,29200,33734,34926
AUA10105,Boyarka,UKR12,Ukraine,50.32,30.32,0,0,0,0,0,19465,28991,34197,38773,35800,34908
AR92403,aznakajevo,RUS65,Russia,54.85,53.06666667,0,0,0,0,0,11700,21900,26700,32200,35412,34859
AR03234501,novokubansk,RUS33,Russia,45.1,41.05,0,0,0,0,0,23971,23900,27100,30200,35400,34847
AUA22111,Starokostuantiniv,UKR24,Ukraine,49.75,27.22,11081,10529,16377,14589,21766,19909,22034,27356,33204,35049,34754
AR78420,uglich,RUS79,Russia,57.53333333,38.33333333,0,0,0,0,12300,28900,35500,39100,40000,38260,34505
AKA05101,Esik,KAZ005,Kazakhstan,43.35,77.46,0,0,0,0,0,11147,21600,25209,26955,31296,34355
AR80417,blagovsk1,RUS07,Russia,55.03333333,55.98333333,0,0,0,0,11700,12900,14800,21100,27700,32989,34246
AUZ08103,Mang'it,OUZ00,Uzbekistan,42.12,60.06,0,0,0,0,0,0,0,16731,22949,29354,34155
AR71187,jugorsk,RUS70,Russia,61.31666667,63.35,0,0,0,0,0,0,0,12500,24900,30285,34066
ALI02106,Jonava,LIT00,Lithuania,55.08,24.28,0,0,0,0,0,0,14438,28521,36274,34911,34056
AR33413,slobodskoj,RUS28,Russia,58.71666667,50.18333333,0,0,10051,10900,22800,34310,38039,40528,43391,42777,33983
AR20231501,ostrogozhsk,RUS78,Russia,50.86666667,39.06666667,0,0,20983,22000,11700,28400,29900,34000,34500,34585,33842
AAR04101,Armavir,ARM00,Armenia,40.09,44.05,0,0,0,0,0,14932,25881,31431,46857,32075,33800
ABE04113,Ragatchou,BEL00,Belarus,53.09,30.05,0,0,0,10332,15168,10156,16008,25070,35757,35175,33800
AR57416,dobrjanka,RUS52,Russia,58.46666667,56.41666667,0,0,0,0,0,15500,18300,22200,35300,36436,33685
AR75507,trjohgornyj,RUS66,Russia,54.8,58.45,0,0,0,0,0,0,0,0,0,34290,33678
AUA08114,Tokmak,UKR09,Ukraine,47.25,35.71,0,0,0,0,29675,28575,36201,42178,45112,35977,33655
AKA10102,Zhitikara,KAZ001,Kazakhstan,52.19,61.2,0,0,0,0,0,14672,32169,39422,48204,34271,33587
AR41451,slancy,RUS35,Russia,59.11666667,28.08333333,0,0,0,0,0,35300,41100,42300,43100,37371,33587
AUZ03106,Rishton,OUZ00,Uzbekistan,40.36,71.28,0,0,0,0,0,0,0,19309,23706,29406,33575
AR64415,korsakov,RUS58,Russia,46.63333333,142.7666667,0,0,0,0,0,32900,38200,42300,45100,36652,33518
AR61405,kasimov,RUS56,Russia,54.93333333,41.4,0,0,13547,13000,27900,27900,33100,34200,37500,35816,33494
AR71175,muravlenko,RUS70,Russia,63.78333333,74.51666667,0,0,0,0,0,0,0,0,23100,35926,33401
AKA05102,Zharkent,KAZ005,Kazakhstan,44.16,80,0,0,16094,14264,13513,12434,19173,23997,31106,32707,33350
AR57257501,chernushka,RUS52,Russia,56.5,56.08333333,0,0,0,0,0,12100,21100,28100,34800,35713,33275
AR46493,jubilejnyj,RUS40,Russia,55.93333333,37.85,0,0,0,0,0,0,0,0,0,30837,33221
AR65406,artjomvskij,RUS63,Russia,57.36666667,61.86666667,0,0,0,0,0,34800,37700,39200,41200,34980,33136
AKI07201,Talas,KIR00,Kyrgyzstan,42.52,72.24,0,0,0,0,0,0,0,22958,30520,29991,33088
AAZ04108,_mishli,AZE00,Azerbaijan,39.87,48.06,0,0,0,0,0,0,17839,21340,25715,30009,33000
AMO01151,Ungheni,MOL00,Moldavia,47.2,27.8,0,0,0,0,0,11129,17228,24993,37788,33186,33000
ATU05101,Atamyrat,TUR00,Turkmenistan,37.83,65.21,0,0,0,0,0,0,0,16083,19747,27137,33000
AR86215501,kondopoga,RUS12,Russia,62.2,34.26666667,0,0,0,0,0,16100,27900,35200,36400,34863,32978
AR46257501,shatura,RUS40,Russia,55.56666667,39.53333333,0,0,0,0,15100,19600,24500,29400,31600,30393,32905
AR57415,gubaha,RUS52,Russia,58.86666667,57.58333333,0,0,0,0,14575,47100,62002,52758,53073,42115,32905
AKA07101,Arsai,KAZ002,Kazakhstan,51.17,52.99,0,0,0,0,0,0,10520,10400,18237,31930,32873
AR46489,scherbinka,RUS40,Russia,55.5,37.56666667,0,0,0,0,0,18100,23400,23600,28000,28043,32836
AR07210501,blagodarnyj,RUS62,Russia,45.1,43.43333333,0,0,12200,14775,16100,14900,20200,22700,27800,34500,32736
AR27405,baltijsk,RUS20,Russia,54.65,19.91666667,0,0,0,0,0,17400,20300,23600,27100,33252,32670
AR92437,nurlat,RUS65,Russia,54.43333333,50.8,0,0,0,0,0,12700,17500,18600,23500,32527,32600
AUA20117,Tchougouiv,UKR22,Ukraine,49.84,36.96,0,0,12592,13311,19074,22657,24733,32128,36543,36339,32532
AR25420,zima,RUS17,Russia,53.91666667,102.05,0,0,0,0,26800,38500,41600,48100,41800,34899,32522
AUA10114,Oboushiv,UKR12,Ukraine,50.1,30.63,0,0,0,0,0,0,0,12095,30177,32749,32516
AKA12201,Beineu,KAZ006,Kazakhstan,45.32,55.2,0,0,0,0,0,0,0,0,11913,17025,32452
AR01419,slavgorod,RUS02,Russia,53,78.65,0,0,0,0,0,38400,32900,32100,34900,34335,32390
ABE06101,Asipobitchy,BEL00,Belarus,53.29,28.64,0,0,0,0,13723,15777,19705,27409,33803,35175,32281
AR03241501,primorahtar,RUS33,Russia,46.05,38.18333333,0,0,0,0,0,22000,26000,28000,30000,32677,32253
ABE06104,Gorki,BEL00,Belarus,54.28,30.99,0,0,0,0,12475,15099,22117,26627,30905,33537,32167
AR87415,Inta,RUS29,Russia,66.03333333,60.13333333,0,0,0,0,0,45100,50200,50900,60200,41217,32021
ALI09108,Utena,LIT00,Lithuania,55.5,25.6,0,0,0,0,0,0,13319,23742,34353,33665,31943
AUA05115,Dobropillya,UKR06,Ukraine,48.42,37.05,0,0,0,0,0,23666,30115,32587,40064,35264,31934
AR75403,asha,RUS66,Russia,55,57.25,0,0,0,0,23600,36500,37400,36100,38600,33926,31916
AR70408,bogorodick,RUS72,Russia,53.76666667,38.13333333,0,0,0,0,13200,32897,39588,39170,38819,34018,31897
AR29405,kirovk,RUS22,Russia,54.08333333,34.3,0,0,0,0,10737,16600,29400,33500,36000,38893,31888
AUZ06102,Nurota,OUZ00,Uzbekistan,40.56,65.69,0,0,0,0,0,0,0,15948,21001,27192,31878
AR49413,starajarusa,RUS43,Russia,57.98333333,31.35,0,0,15183,21500,22959,25400,34600,40400,41500,35511,31809
AR78410,rostov,RUS79,Russia,57.18333333,39.41666667,0,0,13715,20000,29800,29200,30800,31500,35700,34141,31791
AR97413,shumerlja,RUS69,Russia,55.5,46.41666667,0,0,0,15200,15200,30200,33800,37300,42000,36239,31724
AR66208501,gagarin,RUS61,Russia,55.55,35,0,0,0,0,0,0,15700,20800,28900,28789,31721
AR19410,velustug,RUS77,Russia,60.76666667,46.3,0,0,11137,19100,32100,37000,36700,37900,36200,33419,31664
AUA04122,Sinel'nikove,UKR05,Ukraine,48.33,35.52,0,0,0,12496,23046,28026,30261,34291,37807,32107,31553
AR63422,marks,RUS60,Russia,51.7,46.75,0,0,0,12500,16100,13100,17100,25700,31900,32849,31535
ATU03202,Khazar,TUR00,Turkmenistan,39.41,54.13,0,0,0,0,0,0,0,0,13900,23062,31493
AUZ12111,Piskent,OUZ00,Uzbekistan,40.9,69.35,0,0,0,0,0,0,0,21100,24412,28562,31460
AUZ07204,Muborak,OUZ00,Uzbekistan,39.26,65.15,0,0,0,0,0,0,0,0,19900,26421,31455
AR46233501,mozhajsk,RUS40,Russia,55.5,36.03333333,0,0,0,0,11800,15700,20300,27100,30700,31459,31388
AR76407,borzja,RUS80,Russia,50.38333333,116.5333333,0,0,0,0,0,23700,27800,35800,36400,31460,31376
AR46243513,likinodulev,RUS40,Russia,55.7,38.95,0,0,0,0,0,24600,27500,31800,34200,31440,31331
AUZ12210,Kibray,OUZ00,Uzbekistan,41.38,69.47,0,0,0,0,0,0,0,0,24300,28440,31331
AUZ10102,Sirdaryo,OUZ00,Uzbekistan,40.84,68.66,0,0,0,0,0,0,0,21068,23501,28075,31322
AR80418,djurtjuli,RUS07,Russia,55.48333333,54.86666667,0,0,0,0,0,0,14300,19600,25300,29984,31272
AR63428,petrovsk,RUS60,Russia,52.31666667,45.38333333,0,0,13304,19200,21304,25000,31000,34200,34800,33956,31158
AR26408,karabulak,RUS167,Russia,43.3,44.9,0,0,0,0,0,0,0,0,0,31279,31081
AR41248508,nikoljskoje,RUS35,Russia,59.7,30.78333333,0,0,0,0,0,0,0,13200,17200,26550,31079
AR26405,malgobek,RUS167,Russia,43.51666667,44.58333333,0,0,0,0,12400,13900,20500,20600,20400,41876,31076
AUZ05206,Yanikurgon,OUZ00,Uzbekistan,41.19,71.72,0,0,0,0,0,0,0,0,20300,26414,31059
AR28455,udomlja,RUS74,Russia,57.88333333,35.01666667,0,0,0,0,0,0,0,12100,30800,31961,31048
AR64440,holmsk,RUS58,Russia,47.03333333,142.0333333,0,0,0,0,0,31500,37400,45200,51400,35141,30936
AUA20114,Pervomaiskii,UKR22,Ukraine,49.38,36.22,0,0,0,0,0,0,15666,31141,37474,32291,30910
AUA17106,Kostopil,UKR19,Ukraine,50.88,26.45,0,0,0,0,0,11762,17548,22803,31610,30360,30850
ALI02109,K_dainiai,LIT00,Lithuania,55.29,23.97,0,0,0,0,0,10580,19677,28096,34112,31939,30663
AR46231573,Tomilino,RUS40,Russia,55.66,37.94,0,0,0,0,0,16514,22682,26017,27736,28545,30624
AR91235501,ustjdgeguta,RUS62,Russia,44.08333333,41.96666667,0,0,0,0,0,11500,16700,19200,29200,32903,30602
AKA13107,Shardara,KAZ004,Kazakhstan,41.32,67.97,0,0,0,0,0,0,14566,20481,25629,26651,30573
AR75406,verhufalej,RUS66,Russia,56.05,60.23333333,0,0,0,0,25600,36900,37900,38600,40100,34360,30504
AKA03102,Atbasar,KAZ001,Kazakhstan,51.8,68.33,0,0,0,0,0,34316,37228,36250,39163,30080,30436
AR29223501,maljarslavc,RUS22,Russia,55,36.46666667,0,0,0,0,0,17900,21200,22100,26600,31606,30401
AR50405,barabinsk,RUS44,Russia,55.35,78.35,0,0,0,0,17205,40900,37300,37300,36500,32501,30394
AR61415,skopin,RUS56,Russia,53.81666667,39.55,0,11217,13247,10100,14110,23599,34800,36129,38297,33175,30374
AUZ07205,Oktriabrskii,OUZ00,Uzbekistan,39.1,66.82,0,0,0,0,0,0,0,0,19200,25491,30348
AUZ03211,Gurlan,OUZ00,Uzbekistan,41.84,60.4,0,0,0,0,0,0,0,0,19800,25745,30260
AR75409,emanzhelnsk,RUS66,Russia,54.75,61.31666667,0,0,0,0,11100,33600,33400,31000,31200,30202,30218
AUA01110,Krasnoperekopsk,UKR01,Ukraine,45.95,33.79,0,0,0,0,0,0,14664,25584,31143,30998,30201
AR65470,kushva,RUS63,Russia,58.28333333,59.73333333,0,0,0,14200,22601,46200,43800,43300,43100,35555,30166
AR03409,gorkljuch,RUS33,Russia,44.63333333,39.13333333,0,0,0,0,0,0,19800,22700,25600,27693,30093
AR17230501,kirzhach,RUS75,Russia,56.15,38.86666667,0,0,0,0,11600,22610,27942,34397,36860,32937,30044
AUA20110,Koupyansk,UKR22,Ukraine,49.72,37.6,0,0,0,15109,20961,25644,30055,33860,35001,32133,30014
AGE04105,Samtrediya,GEO00,Georgia,42.15,42.34,0,0,0,13813,13018,19580,21974,33999,34468,29761,30000
AKA11101,Aralsk,KAZ004,Kazakhstan,46.8,61.67,0,0,0,0,0,19615,37722,32087,30801,29706,29987
AUZ08207,Karauzyak,OUZ00,Uzbekistan,43.03,60.02,0,0,0,0,0,0,0,0,20100,25744,29979
AUZ04201,Zomin,OUZ00,Uzbekistan,39.96,68.41,0,0,0,0,0,0,0,0,19500,25393,29874
AUZ09101,Krasnogvardeisk,OUZ00,Uzbekistan,39.76,67.27,0,0,0,0,0,0,0,16852,21030,26126,29858
AR46230501,luhovicy,RUS40,Russia,54.98333333,39.03333333,0,0,0,0,0,12700,18100,27700,32500,32403,29849
AUZ08205,Tahtakupir,OUZ00,Uzbekistan,43.03,60.29,0,0,0,0,0,0,0,0,20000,25616,29830
AUA20101,Balakliya,UKR22,Ukraine,49.47,36.86,0,0,0,0,13636,21325,30470,32820,35737,32038,29781
ALI08105,Telsiai,LIT00,Lithuania,55.98,22.25,0,0,0,0,0,13460,20220,26918,33553,31227,29764
AR66410,desnogorsk,RUS61,Russia,54.15,33.28333333,0,0,0,0,0,0,0,0,32300,32070,29677
AR86245501,segezha,RUS12,Russia,63.73333333,34.31666667,0,0,0,0,0,19700,28800,36400,38200,34214,29660
AUZ03210,Sovot,OUZ00,Uzbekistan,41.66,60.29,0,0,0,0,0,0,0,0,19400,25225,29649
AKA11206,Shieli,KAZ004,Kazakhstan,44.17,66.75,0,0,0,0,0,13963,22169,25722,28484,28299,29632
AR96402,argun,RUS167,Russia,43.3,45.86666667,0,0,0,0,0,0,15100,21700,25500,25698,29528
AR01403,alejsk,RUS02,Russia,52.5,82.78333333,0,0,0,0,0,29000,32500,31300,30300,28551,29512
AR15216501,djatjkovo,RUS11,Russia,53.6,34.33333333,0,0,0,10822,17300,19400,26800,31700,34400,33600,29438
AAZ04102,Aghdash,AZE00,Azerbaijan,40.65,47.48,0,0,0,0,0,0,14931,17352,19756,25268,29400
AUZ02207,Safirkon,OUZ00,Uzbekistan,40.14,64.5,0,0,0,0,0,0,0,0,19700,25236,29391
ABE02104,Byaroza,BEL00,Belarus,52.53,24.98,0,0,0,0,0,0,0,13113,23203,29800,29390
AR12519,znamensk,RUS06,Russia,48.58333333,45.73333333,0,0,0,0,0,0,0,0,0,32068,29357
ABE05109,Navagroudak,BEL00,Belarus,53.6,25.83,0,0,0,11606,13800,12624,19374,22423,29506,30499,29298
AR46218503,dedovsk,RUS40,Russia,55.86666667,37.13333333,0,0,0,0,13500,19500,25300,29600,30700,27662,29280
AR65490,severuralsk,RUS63,Russia,60.15,59.93333333,0,0,0,0,0,25900,29900,32500,36100,34673,29279
AR53427,sorochinsk,RUS47,Russia,52.43333333,53.15,0,0,0,0,17900,19400,23200,24700,26700,30136,29260
AUA19117,Tchortkiv,UKR21,Ukraine,49.02,25.8,0,0,0,0,21900,15294,19183,24241,26681,29125,29196
AUA01102,Aloushka,UKR01,Ukraine,44.67,34.4,0,0,0,0,0,13193,22016,28547,36413,31090,29191
AKA04105,Kandyagash,KAZ003,Kazakhstan,49.47,57.42,0,0,0,0,0,0,0,11047,26691,25961,29169
AR75418,kartaly,RUS66,Russia,53.05,60.65,0,0,0,0,13700,33900,42800,38900,37100,29908,29136
AUA04118,Pershotravensk,UKR05,Ukraine,48.35,36.38,0,0,0,0,0,0,20422,23660,28068,29035,29122
AGE11104,Khaskhouri,GEO00,Georgia,41.99,43.59,0,0,0,0,15560,18646,24469,28638,32639,28560,29000
ATA01303,Yovon,TAD00,Tajikistan,38.31,69.04,0,0,0,0,0,0,0,13884,20148,25243,29000
AR57141,kudymkar,RUS52,Russia,59.01666667,54.66666667,0,0,0,0,0,21800,26400,28400,33500,31914,28984
AUA05123,Kirovske,UKR06,Ukraine,48.15,38.36,0,0,0,0,0,16314,17364,20376,32552,30668,28690
AUZ01203,Kurgontepa,OUZ00,Uzbekistan,40.74,72.75,0,0,0,0,0,0,0,0,19600,24791,28648
AUA17111,Sarni,UKR19,Ukraine,51.33,26.6,0,0,0,0,13400,10174,15409,19137,29269,28072,28609
AGE08104,Senaki,GEO00,Georgia,42.27,42.08,0,0,0,0,12120,17907,25354,27030,29161,28082,28600
AR50217501,karasuk,RUS44,Russia,53.73333333,78.03333333,0,0,0,0,0,20000,22600,25500,29400,28734,28586
AUZ14203,Carkurgon,OUZ00,Uzbekistan,37.55,67.25,0,0,0,0,0,0,0,0,17700,23795,28547
ATU05102,Goumdag,TUR00,Turkmenistan,39.21,54.59,0,0,0,0,0,0,0,16266,22163,25915,28533
AUA13124,Novoyavorivsk,UKR15,Ukraine,49.92,23.73,0,0,0,0,0,0,0,0,24320,26467,28516
ATU04205,Yilanli,TUR00,Turkmenistan,41.88,59.63,0,0,0,0,0,0,0,0,16936,23380,28512
AUZ01209,Ilyichavsk,OUZ00,Uzbekistan,40.73,72.88,0,0,0,0,0,0,0,0,19500,24664,28501
AUA23105,Zolotonosha,UKR25,Ukraine,49.67,32.03,0,0,0,15481,18351,24603,27639,28579,30715,28715,28463
AUA13123,Novii Rozdil,UKR15,Ukraine,49.47,24.13,0,0,0,0,0,0,14318,22077,29159,27972,28462
AR86406,kostomuksha,RUS12,Russia,64.58333333,30.6,0,0,0,0,0,0,0,0,30400,29746,28433
AUA07110,Khoust,UKR08,Ukraine,48.18,23.3,0,0,0,0,0,20902,23810,27522,31287,28949,28392
AR53425,soljileck,RUS47,Russia,51.16666667,54.98333333,0,0,11768,13915,15000,21600,22300,21700,23800,26883,28369
AUA10115,Pereyaslav-Khmel'snitskii,UKR12,Ukraine,50.08,31.47,0,0,14614,14975,14730,14361,20919,26669,29483,31425,28280
AR27212501,gusev,RUS20,Russia,54.58333333,22.2,0,0,0,0,0,14200,22100,24600,27000,28467,28260
AR36427,pohvistnevo,RUS59,Russia,53.65,52.13333333,0,0,0,0,0,23100,26100,25700,27800,27973,28181
AKA10101,Arkalyk,KAZ001,Kazakhstan,50.25,66.91,0,0,0,0,0,0,15108,47963,62367,33084,28169
AR61410,sasovo,RUS56,Russia,54.35,41.91666667,0,0,0,0,14111,20700,27200,30200,35900,30736,28117
AUA02118,Khmel'nik,UKR03,Ukraine,49.55,27.97,0,0,11657,10794,12081,13288,18490,23793,29702,27852,28076
ALI09109,Visaginas,LIT00,Lithuania,55.6,26.42,0,0,0,0,0,0,0,0,31579,29271,28048
ATA03101,Khoroug,TAD00,Tajikistan,37.49,71.56,0,0,0,0,0,0,0,17843,20318,24780,28000
AUA15119,Youzhne,UKR17,Ukraine,46.63,31.05,0,0,0,0,0,0,0,0,15587,24193,27895
AUZ09208,Yanirobod,OUZ00,Uzbekistan,40.04,65.96,0,0,0,0,0,0,0,0,19600,24371,27868
AUZ01205,Pahtaobod,OUZ00,Uzbekistan,40.93,72.49,0,0,0,0,0,0,0,0,19000,24032,27771
AR08418,sovetgavanj,RUS26,Russia,48.96666667,140.2833333,0,0,0,0,0,37400,28500,29000,34900,30480,27712
AR07241501,neftekumsk,RUS62,Russia,44.75,44.98333333,0,0,0,0,0,0,14600,20200,22100,27395,27700
AR60234501,morozovsk,RUS55,Russia,48.35,41.83333333,0,0,0,12000,21700,27000,27000,27200,27000,29222,27644
AR05408,dalnerechsk,RUS53,Russia,45.93333333,133.7333333,0,0,0,0,13900,25400,28200,31300,33600,30092,27601
AUZ07207,Yakkabog,OUZ00,Uzbekistan,38.98,66.68,0,0,0,0,0,0,0,0,17400,23101,27503
ALI07107,Taurag_,LIT00,Lithuania,55.25,22.29,0,0,0,0,0,12041,19461,25838,29996,28968,27500
AUZ04203,Gagarin,OUZ00,Uzbekistan,40.66,68.16,0,0,0,0,0,0,0,0,17900,23310,27423
AUZ07209,Guzor,OUZ00,Uzbekistan,38.62,66.25,0,0,0,0,0,0,0,0,17300,22968,27345
AR52415,tara,RUS45,Russia,56.9,74.36666667,0,0,0,10300,15400,22600,22400,23200,26200,26888,27322
AR53415,mednogorsk,RUS47,Russia,51.4,57.58333333,0,0,0,0,19600,36800,38000,34900,34100,31369,27290
ALE01170,Valmiera,LET00,Latvia,57.55,25.4,0,0,0,0,0,11589,20331,25544,29457,27352,27234
AR20208501,buturlinvka,RUS78,Russia,50.83333333,40.6,0,0,23500,27500,11400,13300,21600,23600,29300,28627,27208
AUZ12208,Yangiobod,OUZ00,Uzbekistan,41.04,70.09,0,0,0,0,0,0,0,0,21100,24695,27205
ABE06109,Krytchau,BEL00,Belarus,53.7,31.71,0,0,0,0,15993,19028,25682,30447,32908,28752,27022
AR80460,janaul,RUS07,Russia,56.26666667,54.93333333,0,0,0,0,11900,15800,20100,21800,25700,27909,26988
ALI10114,Ukmerg_,LIT00,Lithuania,55.25,24.75,0,0,13532,10908,12327,14880,21663,26996,30649,28569,26970
AUA06107,Malin,UKR07,Ukraine,50.77,29.23,0,0,0,0,11367,11095,16606,23791,29572,28058,26953
AR71173,labytnangi,RUS70,Russia,66.65,66.4,0,0,0,0,0,0,0,17700,31500,27304,26948
AUZ14202,Boysun,OUZ00,Uzbekistan,38.21,67.2,0,0,0,0,0,0,0,0,16700,22450,26934
AR18216501,kalachnadon,RUS76,Russia,48.68333333,43.53333333,0,0,0,0,0,16700,20800,22800,23000,26882,26892
AR65440,kamyshlov,RUS63,Russia,56.85,62.71666667,0,0,0,0,15342,30100,30800,31900,33500,28914,26875
AR60218501,zernograd,RUS55,Russia,46.85,40.3,0,0,0,0,0,15600,20300,25300,26100,28840,26850
AR68430,uvarovo,RUS64,Russia,51.98333333,42.26666667,0,0,0,0,10800,18513,24900,31700,34600,29690,26829
ABE07104,Vileika,BEL00,Belarus,54.5,26.92,0,0,0,0,0,0,12240,20747,28077,30000,26786
AUZ14208,Surci,OUZ00,Uzbekistan,38.01,67.79,0,0,0,0,0,0,0,0,16600,22316,26773
AR07243501,novoaleksan,RUS62,Russia,45.5,41.23333333,0,0,0,0,0,16500,20700,22700,25800,27315,26759
AR83220501,majskij,RUS19,Russia,43.63333333,44.06666667,0,0,0,0,0,12400,18600,21800,24500,27037,26755
AKA08102,Karatau,KAZ004,Kazakhstan,43.17,70.47,0,0,0,0,0,0,26962,30908,41825,26870,26639
ATU05206,Gazojak,TUR00,Turkmenistan,41.18,61.4,0,0,0,0,0,0,0,0,12374,19869,26592
AKA04108,Shalkar,KAZ003,Kazakhstan,47.83,59.6,0,0,0,0,0,17236,19377,22150,28899,25933,26574
AR07225501,novpavlovsk,RUS62,Russia,43.96666667,43.63333333,0,0,0,0,0,0,10608,13500,18600,23235,26556
AUA05112,Debal'tseve,UKR06,Ukraine,48.34,38.4,0,0,0,13100,34202,33847,35366,33871,35511,29870,26478
AR71124604,sovetskijh,RUS70,Russia,61.36666667,63.56666667,0,0,0,0,0,0,0,13700,21100,23230,26434
ALE01125,J_kabpils,LET00,Latvia,56.48,25.85,0,0,0,0,0,0,22440,26829,31435,27381,26386
AUA18108,Lebedin,UKR20,Ukraine,50.59,34.48,10571,10102,14301,19297,20550,24741,29240,20580,32355,28702,26382
AR46573000000,Vlasikha,RUS40,Russia,55.68,37.19,0,0,0,0,0,0,0,0,0,0,26339
AR29206505,balabanovo,RUS22,Russia,55.18333333,36.65,0,0,0,0,0,0,10900,15400,19100,23312,26337
AR24223501,rodniki,RUS18,Russia,57.1,41.73333333,0,0,0,15400,27000,29300,30000,30600,32100,28447,26318
AR46443,kranoarmskm,RUS40,Russia,56.1,38.13333333,0,0,0,0,0,18200,22400,26000,27500,26051,26294
AR15258501,unecha,RUS11,Russia,52.85,32.68333333,0,0,0,0,14000,16500,21700,26400,28600,29039,26196
AR53414,kuvandyk,RUS47,Russia,51.48333333,57.35,0,0,0,0,11200,21400,22900,25100,28300,28679,26176
AUA01104,Bakhtchisarai,UKR01,Ukraine,44.75,33.87,12659,12161,12959,11488,10884,10852,15912,22321,25363,27311,26144
AR25226501,zhelezgrilm,RUS17,Russia,56.58333333,104.1166667,0,0,0,0,0,0,22200,29100,32300,29093,26134
ALE01142,Ogre,LET00,Latvia,56.82,24.6,0,0,0,0,0,0,15708,26071,29926,26283,26113
AKA05110,Tekeli,KAZ005,Kazakhstan,44.83,78.82,0,0,0,0,0,30046,29846,28536,31428,23620,26062
AR07222501,ipatovo,RUS62,Russia,45.71666667,42.9,0,0,0,0,12400,13700,18500,22000,26400,28594,26055
AUA23107,Kaniv,UKR25,Ukraine,49.75,31.47,0,0,0,0,0,0,15967,23121,29049,26556,25846
AUA06106,Korostishiv,UKR07,Ukraine,50.32,29.07,0,0,0,0,11215,16960,21153,24420,28046,25985,25817
AR46242501,ozjory,RUS40,Russia,54.85,38.55,0,0,0,14100,23000,24800,26100,26700,28200,25704,25788
AR34405,buj,RUS30,Russia,58.48333333,41.53333333,0,0,0,0,20400,27200,29200,28300,32700,27392,25763
AUA02104,Gaisin,UKR03,Ukraine,48.8,29.4,0,0,0,13766,14819,17680,23741,24470,25766,25609,25760
ATU01202,Bäherden,TUR00,Turkmenistan,38.44,57.43,0,0,0,0,0,0,0,0,16823,21896,25752
AMO01139,Orhei,MOL00,Moldavia,47.38,28.82,0,0,12336,13924,14700,14391,25798,28503,31843,26392,25700
AR71403,zavodukovsk,RUS70,Russia,56.5,66.55,0,0,0,0,0,0,17500,21500,25800,25674,25657
AR41428,kirovskl,RUS35,Russia,59.86666667,30.98333333,0,0,0,0,0,11100,12000,17000,23700,24361,25633
AUA12110,Zolote,UKR14,Ukraine,48.69,38.52,0,0,0,0,25258,45524,41651,39856,36451,29018,25630
AR63404,atkarsk,RUS60,Russia,51.86666667,45,0,0,0,19300,19000,27800,28900,29100,28900,27907,25620
AR69402,asino,RUS71,Russia,57,86.15,0,0,0,0,0,24700,29400,31600,33500,28068,25614
AR71118657,Poikovskii,RUS70,Russia,61.23,73.33,0,0,0,0,0,0,0,0,14901,27540,25589
AMO02104,Dubasari,MOL00,Moldavia,47.26,29.16,0,0,12089,12250,12322,12435,17289,24409,35806,24995,25501
AAZ04107,Haciqabul,AZE00,Azerbaijan,40.04,48.94,0,0,0,0,0,12238,14868,19066,21504,23897,25500
AUA07102,Vinogradiv,UKR08,Ukraine,48.15,22.77,0,0,0,0,0,15910,20580,22436,25663,25738,25435
AUZ04204,Gazalkent,OUZ00,Uzbekistan,40.06,67.36,0,0,0,0,0,0,0,0,16600,21617,25431
AAR03102,Artashat,ARM00,Armenia,39.95,44.55,0,0,0,0,0,0,13924,16753,32324,25099,25400
AR32440,tajga,RUS25,Russia,56.06666667,85.61666667,0,0,0,10900,29100,33900,26900,25200,26200,24726,25330
ABE07105,Dzyarzhynsk,BEL00,Belarus,53.69,27.14,0,0,0,0,0,0,10889,15785,22904,24218,25287
AUA21109,Tsyouroupinsk,UKR23,Ukraine,46.62,32.71,0,0,0,0,11369,11689,16114,20239,24760,24094,25264
AR20233501,pavlovskv,RUS78,Russia,50.45,40.11666667,0,0,0,0,11100,12100,14800,21000,25900,26365,25126
AR03233551,Mostovskoi,RUS33,Russia,56.76,92.75,0,0,0,0,0,0,12495,14363,19348,24866,25077
AUA11104,Znamyanka,UKR13,Ukraine,48.71,32.66,0,0,0,0,14604,22297,27393,29336,33828,29031,25073
AR10412,zeja,RUS04,Russia,53.73333333,127.25,0,0,0,0,0,0,16700,29000,32000,27795,25042
AAR07107,Tcharentsavan,ARM00,Armenia,40.41,44.64,0,0,0,0,0,0,16455,24808,33900,24929,25000
ATA01103,Nurek,TAD00,Tajikistan,38.39,69.33,0,0,0,0,0,0,0,19126,20752,23288,25000
AUZ12107,Keles,OUZ00,Uzbekistan,41.4,69.21,0,0,0,0,0,0,0,14528,21070,23423,25000
AR33410,kotelnich,RUS28,Russia,58.3,48.33333333,0,0,0,0,18500,27700,29200,32800,36800,28245,24979
AR65460,krasnoural,RUS63,Russia,58.35,60.05,0,0,0,0,0,39200,39700,38200,35300,28961,24973
AR98227501,lensk,RUS15,Russia,60.71666667,114.9,0,0,0,0,0,0,16800,24000,30300,24558,24955
AR81420,sevbajkalsk,RUS10,Russia,55.63333333,109.3166667,0,0,0,0,0,0,0,12900,28300,25434,24935
AUZ02203,Korakul,OUZ00,Uzbekistan,39.52,63.86,0,0,0,0,0,0,0,0,16700,21393,24915
AKA05112,Oushtebe,KAZ005,Kazakhstan,45.24,77.98,0,0,0,0,0,21029,24484,24546,26028,21845,24895
AR32413,gurjevsk,RUS25,Russia,54.28333333,85.93333333,0,0,0,0,0,30400,27200,25600,28200,27381,24816
AGE04103,Zestaponi,GEO00,Georgia,42.11,43.05,0,0,0,0,13728,17213,21701,21101,26098,24158,24800
ATU03201,Gazanjyk,TUR00,Turkmenistan,39.24,55.51,0,0,0,0,0,0,0,0,14400,20129,24737
AUA18101,Vilopollya,UKR20,Ukraine,51.15,34.3,10910,10568,15215,19367,25272,28082,30064,29194,29557,26570,24667
AR46216501,zarajsk,RUS40,Russia,54.76666667,38.88333333,0,0,0,11800,17200,20800,23700,26700,27000,25093,24648
ATU04202,Boldumsaz,TUR00,Turkmenistan,42.14,59.67,0,0,0,0,0,0,0,0,14673,20228,24646
AKA13104,Lengir,KAZ004,Kazakhstan,42.2,69.9,0,0,0,0,0,22986,22220,22047,21716,19276,24642
AUA07101,Beregove,UKR08,Ukraine,48.22,22.65,0,0,0,0,0,25730,27308,29013,30157,26565,24615
AR81248501,gusinozersk,RUS10,Russia,51.28333333,106.5166667,0,0,0,0,0,11600,13800,22300,29800,26502,24603
AUA01112,Saki,UKR01,Ukraine,45.14,33.6,0,0,0,0,0,18122,24208,31230,38690,28969,24580
AR65473,nevjansk,RUS63,Russia,57.48333333,60.2,0,0,16000,13300,18539,30900,29800,32400,29800,26644,24555
AUA17104,Zdolbouniv,UKR19,Ukraine,50.52,26.25,0,0,0,0,11000,14964,21393,25432,27598,24617,24549
AR28405,bezheck,RUS74,Russia,57.78333333,36.7,0,0,0,12900,17500,26900,30000,30600,30400,28643,24517
AUZ03202,Besarik2,OUZ00,Uzbekistan,40.44,70.61,0,0,0,0,0,0,0,0,17300,21463,24508
AR52405,isiljkul,RUS45,Russia,54.9,71.26666667,0,0,0,0,13600,25500,26000,25700,26400,26549,24481
AUA05143,Selidove,UKR06,Ukraine,48.13,37.3,0,0,0,0,0,12949,22315,21853,29831,26484,24481
AR22247501,semjonov,RUS42,Russia,56.8,44.5,0,0,0,0,12000,19800,23600,25200,26300,25298,24472
AUA02109,Kozyatin,UKR03,Ukraine,49.72,28.83,0,0,0,14886,16726,22784,26649,29243,28752,26456,24461
AUA10119,Slavoutitch,UKR12,Ukraine,51.52,30.75,0,0,0,0,0,0,0,0,11364,24402,24407
AR63418,krasnoarmsk,RUS60,Russia,51.01666667,45.7,0,0,0,12400,15800,13600,17500,17600,24100,25411,24362
AR50418,tatarsk,RUS44,Russia,55.21666667,75.96666667,0,0,0,0,14809,30800,29600,30900,30400,26051,24217
AUZ05201,Pop,OUZ00,Uzbekistan,40.89,71.08,0,0,0,0,0,0,0,0,15800,20558,24174
AR69405,kolpashevo,RUS71,Russia,58.31666667,82.91666667,0,0,0,0,15200,22600,24900,28600,31300,28441,24126
AR18226501,kotovo,RUS76,Russia,50.31666667,44.8,0,0,0,0,0,0,20600,23100,25400,26763,24104
AAZ08104,Siyazan,AZE00,Azerbaijan,41,49.17,0,0,0,0,0,0,13949,15499,18655,21860,24100
AKA04107,Khromtau,KAZ003,Kazakhstan,50.25,58.43,0,0,0,0,0,0,12025,17917,24438,22317,24089
AR80419,davlekanovo,RUS07,Russia,54.21666667,55.03333333,0,0,0,0,14200,17100,20100,20700,21900,23860,24040
AUA16101,Gadyatch,UKR18,Ukraine,50.37,34,0,0,0,0,10731,11725,14428,18578,24375,22761,24031
AUZ14206,Sariasiya,OUZ00,Uzbekistan,39.12,66.95,0,0,0,0,0,0,0,0,14900,20030,24031
AR41475,shliselburg,RUS35,Russia,59.95,31.03333333,0,0,0,0,0,16136,18060,21304,24947,23078,24023
AUA18107,Krolevets,UKR20,Ukraine,51.55,33.38,0,0,10384,12485,13595,13996,18307,23804,25962,25006,24019
ATA04301,Khisor,TAD00,Tajikistan,38.48,68.6,0,0,0,0,0,0,0,13695,20220,22483,24000
AR46231567,Malakhovka,RUS40,Russia,55.64,38.03,0,0,0,0,0,27849,27876,28052,26454,18552,23991
AR14258501,stroitel,RUS08,Russia,50.78333333,36.48333333,0,0,0,0,0,0,0,0,14300,18400,23933
AAZ08101,Quba,AZE00,Azerbaijan,41.36,48.51,0,0,15363,13256,11986,15947,18871,19437,20791,22664,23900
AR11205501,veljsk,RUS05,Russia,61.06666667,42.1,0,0,0,0,0,16900,21900,24600,26000,26241,23885
AR60251501,semikarakor,RUS55,Russia,47.51666667,40.8,0,0,0,0,0,10700,15900,20200,22700,23473,23884
AR41225504,Otradnoe,RUS35,Russia,59.78,30.82,0,0,0,0,0,13500,18600,20000,22400,21570,23874
AR91405,karachajesk,RUS62,Russia,43.76666667,41.9,0,0,0,0,0,0,14800,16900,21600,22113,23848
AUA13104,Brodi,UKR15,Ukraine,50.08,25.15,0,0,0,0,15700,10243,15948,19471,23256,23225,23844
AUA13115,Zolotchiv,UKR15,Ukraine,49.8,24.9,0,0,0,0,20900,10513,15281,18757,23189,23403,23817
AUA05116,Dokoutchaevsk,UKR06,Ukraine,47.73,37.67,0,0,0,0,0,20462,25201,24137,26038,24247,23791
AUA04104,Vil'nogirsk,UKR05,Ukraine,48.48,34.02,0,0,0,0,0,0,19419,22626,24620,23796,23776
AUA12120,Molofigvardiisk,UKR14,Ukraine,48.35,39.73,0,0,0,0,0,0,21846,27395,31766,25370,23757
ABE02115,Louninets,BEL00,Belarus,52.25,26.8,0,0,0,0,0,10328,14257,18539,23213,23900,23705
AMO01116,Comrat,MOL00,Moldavia,46.3,28.66,0,0,0,0,13000,14361,21369,23373,25822,23645,23700
AR05547,fokinop,RUS53,Russia,42.96666667,132.4,0,0,0,0,0,0,13600,15200,19342,26457,23683
AR33228501,omutninsk,RUS28,Russia,58.66666667,52.18333333,0,0,0,0,17400,24800,28800,28500,29200,26065,23618
AUZ04206,Pakhtakor,OUZ00,Uzbekistan,40.32,67.96,0,0,0,0,0,0,0,0,15400,20054,23593
AR75455,ustjkatav,RUS66,Russia,54.93333333,58.16666667,0,0,0,0,13000,23100,23400,24500,31200,25898,23586
AR52410,kalachinsk,RUS45,Russia,55.05,74.58333333,0,0,0,0,0,19000,20800,22400,25000,24247,23539
AR28408,bologoje,RUS74,Russia,57.86666667,34.05,0,0,10000,10900,17300,30300,33900,31300,35900,26612,23499
AUA05107,Volnovakha,UKR06,Ukraine,45.6,37.5,0,0,0,0,15261,20199,24427,25411,26371,24587,23484
AR46205501,volokolamsk,RUS40,Russia,56.03333333,35.95,0,0,0,0,0,0,20901,24005,24001,20303,23386
AR71172,gubkinskij,RUS70,Russia,64.43333333,76.5,0,0,0,0,0,0,0,0,0,20407,23340
AR32443,tashtagol,RUS25,Russia,52.76666667,87.86666667,0,0,0,0,0,17100,25100,24400,26300,23363,23114
AGE10105,Marneouli,GEO00,Georgia,41.46,44.81,0,0,0,0,0,12400,15829,19568,27557,20065,23100
AR47417,olenegorsk,RUS41,Russia,68.13333333,33.26666667,0,0,0,0,0,12100,21500,27400,35600,25166,23079
ALI08102,Plung_,LIT00,Lithuania,55.91,21.84,0,0,0,0,0,0,13560,18874,22787,23388,23063
ABE02111,Ivatsevitchy,BEL00,Belarus,52.71,25.34,0,0,0,0,0,0,0,11178,17219,24020,23036
AR64425,oha,RUS58,Russia,53.58333333,142.9333333,0,0,0,0,0,27600,30900,32900,36100,27963,23007
AAR09102,Goris,ARM00,Armenia,39.51,46.34,0,0,0,0,0,10377,14620,17379,23795,23221,23000
AAZ08103,shabran,AZE00,Azerbaijan,41.21,48.99,0,0,0,0,0,0,13392,15374,18647,21233,23000
AR03243555,Ilskii,RUS33,Russia,44.85,38.55,0,0,0,0,0,17086,18177,18560,19077,22323,22965
AR36204551,Bezentchouk,RUS59,Russia,52.98,49.42,0,0,0,0,0,10376,12605,17670,23650,23921,22952
AR46241510,kubinka,RUS40,Russia,55.58333333,36.7,0,0,0,0,0,0,0,0,0,26158,22918
AR30535,viljuchinsk,RUS23,Russia,52.93333333,158.4,0,0,0,0,0,0,0,0,0,24166,22905
AR28435,nelidovo,RUS74,Russia,56.21666667,32.78333333,0,0,0,0,0,26500,29800,29000,30000,26154,22886
AR34420,nerehta,RUS30,Russia,57.45,40.58333333,0,0,0,0,16300,22300,25700,26700,29300,26002,22817
AR46259554,Monino,RUS40,Russia,55.84,38.19,0,0,0,0,0,10787,15773,18416,18582,20017,22809
AR08414,nikolskamur,RUS26,Russia,53.15,140.7333333,0,0,0,0,17300,30900,30100,33500,36300,28492,22772
AR56251501,nizhnlomov,RUS51,Russia,53.53333333,43.68333333,0,0,0,0,0,13900,17500,22700,26600,24249,22725
AKA11203,Zhanakorgan,KAZ004,Kazakhstan,43.91,67.25,0,0,0,0,0,0,10184,16835,18939,20390,22716
AUA01103,Armyansk,UKR01,Ukraine,46.11,33.7,0,0,0,0,0,0,0,20650,24833,23704,22711
AUA05127,Krasnii Liman,UKR06,Ukraine,48.98,37.82,0,0,0,0,25201,28911,30383,31755,31192,27811,22697
AUZ03206,Yaypan,OUZ00,Uzbekistan,40.38,70.82,0,0,0,0,0,0,0,0,16000,19850,22666
AR46259503,losinopetrk,RUS40,Russia,55.86666667,38.2,0,0,0,0,0,16700,22000,22000,22900,22324,22550
AR25204503,vihorevka,RUS17,Russia,56.11666667,101.1666667,0,0,0,0,0,10900,17900,20500,23900,24763,22528
AUA02110,Ladizhin,UKR03,Ukraine,48.67,29.25,0,0,0,0,0,0,11248,17573,19708,22216,22497
AUA12126,Popasna,UKR14,Ukraine,48.61,38.34,0,0,0,0,26350,31027,31012,30209,30257,25577,22495
